Restaurant Name,Address,Category,Rating,Number of Reviews,Price($),Price(1-5),Latitude,Longitude
Pai Northern Thai Kitchen,18 Duncan Street,Thai,4.5,3335,$$,2,43.64784,-79.38872
Richmond Station,1 Richmond Street W,Canadian (New),4.5,869,$$$,3,43.6513729,-79.379285
Mira,420A Wellington Street W,Peruvian,4.5,256,$$,2,43.64417,-79.39639
Rasa,196 Robert Street,Canadian (New),4.5,317,$$,2,43.6627752,-79.4039682
KINKA IZAKAYA ORIGINAL,398 Church Street,Japanese,4.0,1790,$$,2,43.66042406856627,-79.37890046282942
Katsuya,66 Gerrard Street E,Japanese,4.5,478,$$,2,43.65995,-79.37882
Aloette,163 Spadina Avenue,French,4.5,279,$$$,3,43.64855831176563,-79.395963
Mogouyan Hand-Pulled Noodles,124 Dundas St W,Noodles,4.5,42,,0,43.65573,-79.38449
Seven Lives Tacos y Mariscos,72 Kensington Avenue,Mexican,4.5,1458,$,1,43.6544903,-79.4008299
Holy Cow Japanese Steakhouse,254 Queen Street  W,Steakhouses,4.5,139,$$$,3,43.64993,-79.39145
Trattoria Nervosa,75 Yorkville Avenue,Italian,4.0,384,$$,2,43.67101,-79.39104
Gusto 101,101 Portland Street,Italian,4.0,1100,$$,2,43.645002131066,-79.400309337027
Byblos,11 Duncan Street,Mediterranean,4.5,890,$$$$,4,43.647546,-79.388123
Fieramosca,36A Prince Arthur Avenue,Italian,4.5,110,$$$,3,43.66963,-79.39719
Playa Cabana,111 Dupont Street,Mexican,4.0,467,$$,2,43.6759577692695,-79.4011840224266
Juicy Dumpling,280 Spadina Ave,Dim Sum,4.5,594,$,1,43.65252,-79.39854
The Oxley,121 Yorkville Avenue,Gastropubs,4.0,167,$$,2,43.6707168,-79.393126
The Rabbit Hole,21 Adelaide Street W,Gastropubs,4.0,27,,0,43.64995,-79.37976
OEB Breakfast Co.,125 E Liberty Street,Breakfast & Brunch,4.5,93,$$,2,43.6383561,-79.4162024
Ristorante Sotto Sotto,120 Avenue Road,Italian,4.0,121,$$$,3,43.67374,-79.39646
Dzo Viet Eatery,308 Dundas Street W,Vietnamese,4.0,131,$$,2,43.65445,-79.39178
Grandma Loves You,1084 Yonge Street,Sandwiches,5.0,72,$$,2,43.677846,-79.3901081050852
Steam Whistle Biergarten,255 Bremner Boulevard,German,4.5,23,,0,43.640853,-79.385279
AÑEJO,7 Marie Labatte Road,Mexican,4.0,20,,0,43.73411,-79.34557
Osteria Giulia,134 Avenue Road,Italian,4.0,23,,0,43.67431,-79.39668
Three Monks and a Duck,811 Queen Street W,Vegetarian,4.0,79,,0,43.64605,-79.40897
Kingyo Fisherman's Market,51B Winchester Street,Seafood Markets,5.0,5,,0,43.66584529227708,-79.36809319999999
Liu,533 College Street,Desserts,4.5,2,,0,43.65562752660522,-79.41111394321561
Gusto 501,501 King Street E,Italian,4.0,55,,0,43.65464,-79.3595
Library Bar,100 Front Street W,Lounges,4.0,121,$$$,3,43.6461717,-79.3811365
Soya Mandarin Kitchen,31 Baldwin Street,Chinese,4.5,31,,0,43.65588,-79.39329
Joso's,202 Davenport Road,Seafood,4.5,165,$$$,3,43.6751099,-79.39607
Ohiru Cafe,370 College Street,Breakfast & Brunch,5.0,7,,0,43.657258,-79.404682
1 Kitchen,550 Wellington Street W,Cocktail Bars,4.5,33,,0,43.64313343486211,-79.40199552534189
Pearl Diver,100 Adelaide Street E,Seafood,4.0,619,$$,2,43.65163,-79.37375
Manpuku Japanese Eatery,105 McCaul Street,Japanese,4.0,512,$,1,43.65406,-79.39101
New Orleans Seafood & Steakhouse,267 Scarlett Road,Seafood,4.5,162,$$$,3,43.67775,-79.50611
Clay Restaurant,111 Queens Park,Canadian (New),4.0,20,,0,43.66798,-79.39347
Eataly Toronto,55 Bloor Street W,Italian,3.5,270,$$,2,43.6696154170451,-79.3887948598768
The MoMo House,1240 Bay Street,Himalayan/Nepalese,4.5,21,,0,43.6703275,-79.3901571
Famiglia Baldassarre,122 Geary Avenue,Italian,4.5,67,$$,2,43.67052,-79.4350599
King Taps,100 King Street W,Canadian (New),4.0,384,$$,2,43.6486379269,-79.3817439
Dirty Food Eatery,3070 Dundas Street W,Breakfast & Brunch,4.5,130,$$,2,43.66565,-79.47188
PLANTA,1221 Bay Street,Tapas/Small Plates,4.0,488,$$,2,43.6702150961667,-79.3894335574237
Jin Dal Lae,647 Bloor Street W,Korean,4.5,109,$$,2,43.664166,-79.41517
Cafe Landwer - Adelaide & University,165 University Avenue,Cafes,4.0,485,$$,2,43.64875,-79.38491
Mogouyuan Hand-Pulled Noodles,760 Yonge St,Noodles,4.0,77,$$,2,43.66943,-79.38671
Gyubee Japanese Grill - Bloor,335 Bloor Street W,Barbeque,4.0,307,$$$,3,43.66716,-79.40047
Sinjeon Topokki,377 Church Street,Korean,4.5,2,,0,43.66115,-79.37869
Her Father's Cider Bar & Kitchen,119 Harbord Street,Gastropubs,4.5,183,$$,2,43.66232,-79.40453
The Haam,342 Adelaide St W,Japanese,4.0,303,$$,2,43.64743,-79.39308
LA LA Bakeshop,346 A Bloor Street W,Vietnamese,4.5,36,$$,2,43.6670868,-79.4011304
156 Cumberland,156 Cumberland Street,Korean,4.5,12,,0,43.67004,-79.3933
La Chingada,1242 Dundas Street West,Mexican,4.5,58,,0,43.6495234427446,-79.4242079757355
Yuugi Izakaya,49 Baldwin Street,Japanese,4.5,78,,0,43.65574,-79.39382
La Bella Managua,872 Bloor Street W,Latin American,4.5,246,$$,2,43.66232,-79.42495
Dine & Dim,633 Gerrard St E,Dim Sum,4.5,25,,0,43.6656274,-79.3506883
Okonomi House Restaurant,23 Charles Street W,Japanese,4.0,309,$,1,43.668311069021,-79.387133746804
Ikkousha Ramen,249 Queen Street W,Ramen,4.5,283,$$,2,43.65024,-79.38873
Tinuno,31 Howard Street,Filipino,4.0,619,$$,2,43.6711430082347,-79.374853497263
Chiang Mai,171 E Liberty St,Thai,4.5,54,,0,43.6381655863887,-79.4175398947282
Megumi Mazesoba,46 Saint Clair Avenue E,Japanese,5.0,14,,0,43.68876,-79.39196
Beast Bodega,96 Tecumseth Street,Canadian (New),4.0,413,$$,2,43.64408,-79.40578
Beerbistro,18 King Street E,Bistros,4.0,679,$$,2,43.649467134996364,-79.3771696548727
Kibo Secret Garden,154 Cumberland Street,Japanese,4.0,25,,0,43.6700657,-79.3932832
Bar Chica,75 Portland Street,Tapas Bars,4.5,15,,0,43.643879890618265,-79.39968413704536
Raku,456 Queen St W,Japanese,4.0,276,$$,2,43.64831,-79.39944
Mildred's Temple Kitchen,85 Hanna Avenue,Breakfast & Brunch,4.0,994,$$,2,43.6399108749312,-79.4204235076904
Daldongnae,658 Bloor Street,Korean,4.5,79,$$$,3,43.66434,-79.41566
The Senator,249 Victoria Street,Breakfast & Brunch,4.0,489,$$,2,43.65574,-79.37896
Maison T,1071 Shaw St,Bistros,5.0,13,,0,43.67052,-79.42632
Tokyo Hot Fried Chicken,656 College Street,Food Trucks,4.0,45,,0,43.655201668238774,-79.41637633067134
Middle8,119 Yorkville Avenue,Music Venues,4.5,4,,0,43.67064752093457,-79.3930014
C-Block Taiwanese Bento,690 Bloor Street W,Taiwanese,4.5,3,,0,43.664001,-79.41705
Miku,105-10 Bay Street,Japanese,4.0,878,$$$,3,43.6412346,-79.3773697
Cafe Oro Di Napoli,75 Jarvis Street,Pizza,4.5,83,$$,2,43.6514257145518,-79.3721591972351
Yuzuki,120 Bloor Street E,Japanese,4.5,39,,0,43.6713124,-79.3838651
The Hole In the Wall,2867 Dundas Street W,Pubs,4.5,169,$$,2,43.66518,-79.46515
Insomnia Restaurant & Lounge,563 Bloor Street W,Lounges,4.0,1009,$$,2,43.665961,-79.411003
El Nahual Tacos,556 parliament st,Mexican,4.5,147,$,1,43.666945,-79.36922000060865
El Venezolano,818 Danforth Ave,Venezuelan,4.0,27,,0,43.6798013667387,-79.3411719426513
Budapest Restaurant,2183 Danforth Ave,Hungarian,4.0,81,$$,2,43.686310484234454,-79.30998100204901
Ruby Soho,587 King St W,American (Traditional),4.0,37,$$,2,43.64423,-79.40015
Mineral,1027 Yonge Street,Noodles,4.5,18,,0,43.67763,-79.38947
The Roof at SOCO,75 Lower Simcoe Street,Canadian (New),4.0,17,,0,43.64303,-79.38379
Khao San Road,11 Charlotte Street,Thai,4.0,1686,$$,2,43.646412027881496,-79.39361985450327
Black Camel,4 Crescent Road,Sandwiches,4.5,377,$,1,43.677122232751,-79.389209714264
Kebaberie Yorkville,55 Avenue Road,Middle Eastern,4.0,9,$$,2,43.6712097187958,-79.3945072304896
Ramen Isshin,421 College Street,Ramen,4.5,795,$$,2,43.65634,-79.40689
Corner By Spoon And Fork,55 Avenue Road,Thai,4.0,9,$,1,43.6715255,-79.3945958
Smoque N' Bones,869 Queen Street W,Barbeque,4.0,410,$$,2,43.6457027819391,-79.4107432752393
Agio,1351 St Clair Avenue W,Italian,4.5,188,$$,2,43.67599,-79.45066
Pai Northern Thai Kitchen,2335 Yonge Street,Thai,4.0,100,,0,43.70864,-79.39828
Cafe Landwer - Yonge & Bloor,33 Bloor St E,Breakfast & Brunch,4.0,44,$$,2,43.67028,-79.38553
Alo Restaurant,163 Spadina Avenue,Bars,4.5,326,$$$$,4,43.64851,-79.39584
Cherry Street Bar-B-Que,275 Cherry Street,Barbeque,4.0,196,$$,2,43.6456,-79.35229
Antler Kitchen & Bar,1454 Dundas Street West,Canadian (New),4.5,285,$$$,3,43.64985,-79.43059
Madrina Bar y Tapas,2 Trinity Street,Tapas Bars,4.0,131,$$,2,43.64971833602106,-79.35967868465576
Little Vietnam,500 Queen Street W,Vietnamese,4.5,15,,0,43.64793,-79.40121
Oddseoul,90 Ossington Avenue,Korean,4.0,326,$$,2,43.64617546167321,-79.41973480556406
Plan B,2943A Bloor Street W,South African,5.0,30,,0,43.64798362411009,-79.50753974873805
KINKA IZAKAYA HARBOURFRONT,110 Harbour Street,Japanese,4.0,68,,0,43.64157,-79.37978
Bar Reyna,158 Cumberland Street,Mediterranean,3.5,142,$$,2,43.6700299,-79.39335
Yasu,81 Harbord Street,Japanese,4.5,416,$$$$,4,43.66269,-79.40314
Taverne Bernhardts,202 Dovercourt Rd,International,4.0,20,,0,43.6469658425167,-79.4240153208375
Moon Palace,40 Dundas Street W,Seafood,4.0,47,,0,43.6561951,-79.38240341165705
Gyubee Japanese Grill - Dundas,157 Dundas St W,Japanese,4.5,162,$$$,3,43.6551427,-79.3857634
Portici,6 Scollard Street,Italian,4.0,86,$$,2,43.67196,-79.39072
Kōjin,190 University Ave,Canadian (New),4.0,109,$$$,3,43.64933018157421,-79.38639829999917
Sugo,1281 Bloor Street W,Italian,4.5,243,$$,2,43.65825,-79.44227
Tiflisi,1970 Queen Street E,Modern European,4.5,26,,0,43.66993,-79.30159
Hong Kong Bistro Cafe,472 Dundas Street W,Chinese,4.0,118,$,1,43.65348,-79.39686
Pow Wow Cafe,213 Augusta Avenue,Canadian (New),4.5,142,$$,2,43.654184158624396,-79.4015556
Haidilao Hot Pot,237 Yonge Street,Chinese,4.5,15,,0,43.65463297669771,-79.37983900308609
Milou,1375 Dundas St W,Bistros,4.0,22,,0,43.649392,-79.4279101
Mi'hito Sushi Laboratory,55 Avenue Road,Sushi Bars,4.5,6,,0,43.6711378274163,-79.3944513425231
Gurume Sushi,45 Carlton Street,Sushi Bars,5.0,39,,0,43.6613914599157,-79.38099526635763
Giulietta,972 College Street,Italian,4.0,123,$$$,3,43.65353,-79.42764
Mabu Generation,575 Yonge Street,Taiwanese,4.0,49,$$,2,43.6650956222266,-79.3848299235106
Pocha 1989,542 Church Street,Korean,4.0,17,,0,43.66531,-79.38099
Taverna Mercatto,120 Bremner Boulevard,Italian,3.5,223,$$,2,43.6426722096442,-79.3827601467308
Queen of Persia,672A St Clair Avenue W,Persian/Iranian,4.5,47,$$$,3,43.68203,-79.42542
Momo Ghar,568 Parliament St,Himalayan/Nepalese,5.0,5,,0,43.66741,-79.36953
L’Avenue Boulangerie,1850 Avenue Road,Cafes,5.0,8,,0,43.73138342232403,-79.4195393845439
Fat Pasha,414 Dupont Street,Middle Eastern,4.0,208,$$$,3,43.67387,-79.41171
Blu Ristorante,90 Avenue Road,Italian,4.0,170,$$$,3,43.67237,-79.39586
SeoulChild,003 - 411 Richmond Street E,Korean,5.0,1,,0,43.6535528,-79.366828
Rikki Tikki,209 Augusta Avenue,Indian,5.0,12,,0,43.6540813,-79.4014858
Vos Restaurante Argentino,847 College st,Argentine,4.5,36,,0,43.65422274811667,-79.42314864437895
Nodo Restaurant,794 Saint Clair Avenue W,Italian,4.5,58,$$,2,43.6810110636599,-79.4297991693019
Scollard Variety & Deli,105 Scollard Street,Diners,4.5,32,$$,2,43.6716977,-79.3921869
The Opium Bar,1321 Dundas Street West,Whiskey Bars,4.5,20,,0,43.64928,-79.42628
Kovalsky Restaurant,667 The Queensway,Polish,4.5,59,$$,2,43.6270435,-79.4988143
Ugly Delicious,199 Baldwin Street,Burgers,4.5,4,,0,43.6544451,-79.4017501
FK,770 St Clair Avenue W,French,4.5,48,,0,43.68127,-79.42869
Lee Chen Asian Bistro - King,214 King Street W,Dim Sum,4.0,195,$$,2,43.6473690555399,-79.3867627903819
Seoul Food Take-Out,606 Sherbourne Street,Korean,4.5,34,$,1,43.6720547517741,-79.3768996372819
Soos,94 Ossington Avenue,Malaysian,4.0,171,$$$,3,43.6462593,-79.4197464
Lao Thai Restaurant,4 Gladstone Avenue,Thai,4.5,85,$$,2,43.6426406,-79.4273649
Evviva Breakfast & Lunch,25 Lower Simcoe,Breakfast & Brunch,4.0,350,$$,2,43.641602,-79.383301
Horangee Sikdang,431 Yonge Street,Korean,5.0,1,,0,43.660605,-79.38260199999999
GB Hand-pulled Noodles,66 Edward Street,Chinese,4.0,571,$$,2,43.65669,-79.38385
Honest Weight,2766 Dundas Street W,Seafood,4.5,135,$$,2,43.6653335939817,-79.4614855543404
STACK,3265 Yonge Street,Barbeque,4.0,321,$$,2,43.72929,-79.4029599
LOCAL Public Eatery - Liberty Village,171 E Liberty Street,Sports Bars,4.0,303,$$,2,43.6384689262493,-79.4192124903202
The Shozan Room,164 Ossington Ave,Japanese,4.5,22,,0,43.64791,-79.4205
Kasa Moto,115 Yorkville Avenue,Japanese,3.5,257,$$$,3,43.670608,-79.3927837
Mercado Negro,682 Caledonia Road,Tapas/Small Plates,4.5,24,,0,43.69693305385846,-79.4635275308586
FET ZUN,252 Dupont St,Middle Eastern,4.5,36,,0,43.67524,-79.40636
Hair of the Dog,425 Church Street,Pubs,4.0,363,$$,2,43.662946823805,-79.379592870241
Maison Selby,592 Sherbourne Street,French,4.0,101,,0,43.6712727802952,-79.37660004670653
Chubby's Jamaican Kitchen,104 Portland Street,Caribbean,4.0,308,$$,2,43.64532,-79.40066
Brasa Peruvian Kitchen,297 Campbell Avenue,Salad,5.0,8,,0,43.66552,-79.44935
Chadwick's,268 Howland Avenue,Canadian (New),4.0,218,$$,2,43.673524,-79.4118708
Descendant Detroit Style Pizza,1168 Queen Street E,Pizza,4.5,418,$$,2,43.662889,-79.332404
Le Baratin,1600 Dundas Street. W,French,4.5,129,$$,2,43.65007,-79.4351
Midnight Market,434 College St,Lounges,5.0,8,,0,43.65682,-79.40733
Egg Club Wellesley,531 Yonge Street,Breakfast & Brunch,4.5,29,$,1,43.6642,-79.38389
Esto Es Colombia,2848 Dufferin Street,Colombian,5.0,7,,0,43.7066287111662,-79.4533072320145
Jjin Toast,792 Bathurst Street,Korean,5.0,24,,0,43.665326757342655,-79.41142268478869
Scaramouche Restaurant Pasta Bar & Grill,1 Benvenuto Place,French,4.5,329,$$$$,4,43.68155,-79.39991
Le Swan,892 Queen St W,French,4.5,51,,0,43.6452699,-79.4149
Aburi Hana,102 Yorkville Avenue,Sushi Bars,4.5,18,,0,43.671011,-79.3925961
Lee Restaurant,601 King Street W,Asian Fusion,4.0,706,$$$,3,43.644144,-79.400384
Tokyo Kitchen,20 Charles Street E,Japanese,4.0,164,$$,2,43.6690940080509,-79.3851124367706
Pisac Peruvian Bistro,16 Dupont St,Peruvian,4.5,21,,0,43.67724,-79.39836
Completo,5 Coady Avenue,Latin American,4.5,169,$,1,43.6626328,-79.3340575
Nuna Kitchen & Bar,1265 Queen Street W,International,5.0,12,,0,43.64154,-79.43112
La Latina,150 Eglinton Ave E,Mexican,4.5,23,,0,43.70786301101772,-79.39415596425533
A La Turk,3443 Yonge Street,Turkish,4.5,58,,0,43.73357,-79.40419
Meta Dos Leitoes,218 Geary Avenue,Portuguese,4.5,7,$$,2,43.66984,-79.43848
Mama Lee's Korean Kitchen,16 Yonge Street,Korean,4.0,23,,0,43.64325,-79.37636
Buca Yorkville,53 Scollard Street,Italian,4.0,204,$$$,3,43.67214,-79.3894
Tachi,111 Richmond Street W,Sushi Bars,4.5,175,$$$$,4,43.6502911,-79.3839517
Pantheon Restaurant,407 Danforth Avenue,Greek,4.0,341,$$,2,43.67744,-79.35129
Wvrst,609 King Street W,German,4.0,826,$$,2,43.64418555054,-79.401014855291
Chef's Hall,111 Richmond Street W,Food Court,4.0,312,$$,2,43.6503522,-79.3837951
Karlovo,469 Cosburn Avenue,Delis,4.5,2,,0,43.69265,-79.33393
Cactus Club Cafe,77 Adelaide Street W,Cocktail Bars,4.0,581,$$,2,43.64950420768667,-79.38251803088575
Omai Restaurant,3 Baldwin Street,Japanese,4.0,122,$$,2,43.6561,-79.39234
Gushi Japanese Street Food,296 Gerrard Street East,Japanese,4.0,16,,0,43.66255,-79.36741
Mimi Chinese,265 Davenport Road,Chinese,4.0,42,,0,43.67411,-79.3982
Alder,51 Camden Street,Desserts,4.0,15,,0,43.6467,-79.39809
The Golden Pheasant,733 Lakeshore Road E,Modern European,4.5,63,$$,2,43.57077,-79.56565
Koyoi Restaurant & Bar,2 Irwin Avenue,Japanese,4.0,135,$$,2,43.6666786252858,-79.3854676187038
Aviv Immigrant Kitchen,779 St. Clair Avenue W,Mediterranean,4.5,18,,0,43.68078,-79.42912
Buca,604 King Street W,Italian,4.0,453,$$$,3,43.64462,-79.40045
Vagabondo Restobar,310 Front Street W,Italian,4.0,29,,0,43.64402,-79.39078
Good Luck Hongkong Cafe,5533 Yonge Street,Hong Kong Style Cafe,4.0,92,$$,2,43.77856,-79.41484
Souk Tabule,494 Front Street E,Middle Eastern,4.5,121,$$,2,43.653832,-79.354442
Bar Poet,1090 Queen Street W,Pizza,3.5,83,$$,2,43.643732,-79.4223358
Fuwa Fuwa Japanese Pancakes,408 Bloor Street W,Desserts,4.0,397,$$,2,43.6659512785201,-79.4078764691949
Bob's Bulgogi,105 Victoria Street,Korean,4.0,84,$,1,43.652139,-79.377507
Levetto,68 Sudbury Street,Italian,4.0,246,$$,2,43.64152,-79.4221
Gyukatsu Kyoto Katsugyu,134 Dundas Street E,Japanese,4.0,146,$$,2,43.65687,-79.37616
Memphis BBQ,8074 Islington Avenue,Barbeque,4.5,290,$$,2,43.789337,-79.587131
Wilbur Mexicana,552 King Street W,Mexican,4.0,607,$$,2,43.64494,-79.39866
El Charro,788 Broadview ave,Mexican,4.0,86,$,1,43.6771428,-79.3590065
Martino's Pizza & Asian Fusion Kitchen,178 Dupont Street,Pizza,4.0,44,$$,2,43.675568,-79.4036442
Kintaro Izakaya,459 Church Street,Japanese,4.0,232,$$,2,43.66417,-79.38006
The Backyard Smokehouse,264 Dupont Street,Barbeque,4.0,13,,0,43.675077870659926,-79.40676387729849
Korean Village Restaurant,628 Bloor Street W,Korean,4.0,405,$$,2,43.66461,-79.41444
Rasta Pasta,61 Kensington Avenue,Caribbean,4.0,364,$,1,43.6542328627147,-79.4004420356637
Hanmoto,2 Lakeview Avenue,Japanese,4.0,227,$$,2,43.64962095248675,-79.42305491320673
Hanamaru,862 Pape Avenue,Grocery,4.5,19,,0,43.6842559,-79.3471575
Adrak,138 Avenue Road,Indian,3.5,10,,0,43.674422579004904,-79.39662899999999
Churrasqueira Costa Verde BBQ Chicken,370 Oakwood Ave,Portuguese,3.5,33,$,1,43.68732,-79.43903
Pearl Harbourfront Chinese Cuisine,207 Queens Quay W,Dim Sum,3.5,287,$$,2,43.63877,-79.3806
Té,70 Ossington Avenue,Asian Fusion,4.0,121,$$,2,43.64575,-79.41964
The Innis Cafe,2 Sussex Avenue,Cafes,4.0,23,$,1,43.66556,-79.3995599
Tibet Kitchen,1544 Queen Street W,Himalayan/Nepalese,4.5,250,$$,2,43.640095,-79.439659
Minami Toronto,225 King Street W,Japanese,4.0,81,,0,43.64670917505803,-79.3884829276101
SugarKane,699 Danforth Avenue,Caribbean,4.5,32,,0,43.67892,-79.34361
Yummy Korean Food Restaurant,620 Bloor Street W,Korean,4.0,270,$,1,43.66469,-79.4140199
Neon Tiger,14 Dupont Street,Chicken Wings,4.0,4,,0,43.67726,-79.39828
The Olde Yorke,96 Laird Drive,Seafood,4.5,313,$$,2,43.70619,-79.36218
Wynona,819 Gerrard Street E,Italian,4.5,57,,0,43.66706,-79.34454
Reyna on King,354 King Street East,Tapas Bars,4.0,34,,0,43.65346,-79.36226
Gaucho Pie,346 Westmoreland Ave N,Argentine,4.5,8,,0,43.6710432483332,-79.4347860664129
Saigon PAI,446 Parliament Street,Thai,4.5,52,$$,2,43.663435,-79.367799
Saigon Lotus,6 St Andrew Street,Vietnamese,4.5,208,$$,2,43.65449,-79.39928
Papyrus,337 Danforth Avenue,Egyptian,4.5,42,$$,2,43.67709,-79.35324
Ten,1132 College Street,Canadian (New),4.5,11,,0,43.65257,-79.43349
Kaiseki Yu-zen Hashimoto,6 Garamond Court,Japanese,4.5,31,$$$$,4,43.72596,-79.33403
When The Pig Came Home,384 Keele Street,Delicatessen,4.5,72,$$,2,43.6657595,-79.4648277
Motorino Citta,466 Adelaide Street E,Italian,4.5,12,,0,43.6526748635606,-79.3663096055388
Parallel,217 Geary Avenue,Mediterranean,4.0,92,$$,2,43.6694450818033,-79.4385803863406
Frisaca,592 Queen Street W,Latin American,4.5,15,,0,43.64735,-79.40437
Jerusalem Restaurant,955 Eglinton Avenue W,Middle Eastern,4.0,94,$$,2,43.70001,-79.42889
Campechano Taquería,504 Adelaide Street W,Mexican,4.0,183,$$,2,43.64586,-79.40077
Luna Junction,2800 Dundas St W,Portuguese,4.5,35,,0,43.6656,-79.46276
FAMO Sandwiches,122 Sherbourne Street,Sandwiches,4.5,34,$$,2,43.65404,-79.36956
The Queen And Beaver Public House,35 Elm Street,Pubs,4.0,404,$$,2,43.65734,-79.38334
Magical Taste of China,476 Dundas Street,Chinese,4.0,67,$$,2,43.65329794176252,-79.39690564934813
Sakai Bar,1576 Dundas Street West,Japanese,4.5,22,,0,43.6499784722163,-79.4344709068537
Bar'kada,745 Queen Street W,Filipino,4.0,25,,0,43.64642,-79.4071
NaiNai Noodles,852 King Street W,Noodles,4.5,20,,0,43.64287659004824,-79.4085401467018
iL Padrino,579 College Street,Italian,5.0,5,,0,43.65507,-79.41309
Patria,480 King Street W,Spanish,4.0,532,$$$$,4,43.6455399,-79.39641
Banh Mi Boys,392 Queen Street W,Vietnamese,4.5,1235,$,1,43.64884,-79.39695
Lamesa Filipino Kitchen,634 St Clair Avenue W,Filipino,4.0,366,$$,2,43.682297,-79.423948
Paldo Gangsan,694 Bloor Street  W,Korean,4.5,85,$,1,43.664,-79.41743
The Four Seven,1211 Bloor Street  W,Tapas/Small Plates,4.5,32,$$,2,43.65876,-79.43993
Chotto Matte,161 Bay Street,Japanese,3.5,149,,0,43.6462867067857,-79.3788714800065
Gonzo Izakaya,940 College Street,Japanese,4.5,11,,0,43.65374,-79.42659
Jacobs & Co. Steakhouse,12 Brant Street,Steakhouses,4.5,603,$$$$,4,43.64539876116,-79.3980279011192
Don Alfonso 1890,1 Harbour Square,Italian,4.5,31,$$$$,4,43.6413515,-79.3758977
Mayrik,1580 Bayview Avenue,Mediterranean,4.0,70,$$$,3,43.70568,-79.3754
Masaki Saito,88 Avenue Road,Japanese,4.5,10,,0,43.67224,-79.39586
Pig Out BBQ,650 Spadina Avenue,Barbeque,4.0,100,$$,2,43.66317,-79.40253
Prime Seafood Palace,944 Queen Street W,Seafood,4.0,10,,0,43.6448779224016,-79.41673144698143
Rush Hour,1438A Dufferin Street,Portuguese,4.5,46,$$,2,43.67111,-79.44037
DaiLo,503 College Street,Chinese,4.0,314,$$$,3,43.65574,-79.4098
The Haifa Room,224 Ossington Avenue,Middle Eastern,3.5,16,,0,43.64921,-79.42093
Alma,1194 Bloor Street W,Desserts,4.0,24,,0,43.65954,-79.43802
White Lily Diner,678 Queen Street E,Breakfast & Brunch,4.5,139,$$,2,43.65881,-79.3511599
Ramen Buta-Nibo,547 Danforth Avenue,Ramen,4.5,9,,0,43.678213132707185,-79.34766188263893
Piano Piano,623 Mt Pleasant Road,Italian,4.0,38,,0,43.7045,-79.3883
Congee Queen,360 Yonge Street,Chinese,4.0,28,$$,2,43.658302,-79.381986
Zakkushi on Queen West,620 Queen Street W,Japanese,4.5,53,,0,43.64706,-79.40546
Mezes,456 Danforth Avenue,Greek,4.0,252,$$,2,43.6781397,-79.3502475
Levant,899 Bloor Street W,Middle Eastern,4.5,25,,0,43.66159,-79.42615
Playground Cafe,492 Parliament St,Cafes,4.5,10,,0,43.6648746,-79.3684892
Café Zuzu,555 Dundas Street E,Cafes,4.5,5,,0,43.65992,-79.36271
La Paella,1146 Queen Street E,Spanish,4.0,39,,0,43.6625299,-79.33427
The Loose Moose,146 Front Street West,Sports Bars,3.5,446,$$,2,43.64522746,-79.3838502
Hawk & Chick,1426 Dundas Street W,Korean,4.5,22,,0,43.64977,-79.42955
The MoMo House,1422 Queen Street W,Dumplings,4.5,33,,0,43.64119,-79.43505
The Heartbreak Chef,823 Dundas St W,Soul Food,4.5,45,,0,43.6515561,-79.408941
North Of Brooklyn,229 Geary Avenue,Pizza,4.0,42,,0,43.669227255581696,-79.43916335090452
Good Behaviour,1324A Gerrard Street E,Sandwiches,4.5,6,,0,43.671626409087494,-79.32564631365352
416 Snack Bar,181 Bathurst Street,Tapas/Small Plates,4.0,339,$$,2,43.64755,-79.40385
SARA,98 Portland Street,Canadian (New),4.0,77,,0,43.64519,-79.40062
Sash,1133 Yonge Street,Canadian (New),4.0,14,,0,43.68186,-79.39109
Bar Isabel,797 College Street,Spanish,4.0,454,$$$,3,43.654631,-79.4207738
Hendriks Restaurant & Bar,218 Yonge Street,American (Traditional),4.0,112,$$$,3,43.653501,-79.380048
Dreyfus,96 Harbord Street,French,4.0,31,,0,43.66302,-79.40327
Zeal Burgers,1926 Weston Road,Burgers,5.0,139,$$,2,43.7002764,-79.5170776
La Cubana,92 Ossington Avenue,Cuban,4.0,225,$$,2,43.6462083,-79.419674
Mother Tongue,348 Adelaide Street W,Cocktail Bars,4.0,62,,0,43.64739,-79.39327
Miss Likklemore's,433 King Street W,Caribbean,4.5,9,,0,43.64511981042632,-79.39534954726696
Hibachi Teppanyaki & Bar,550 Wellington Street W,Japanese,3.5,111,$$$,3,43.6431385252454,-79.4020506514614
Momo Hut & Gardens,401 Danforth Avenue,Himalayan/Nepalese,4.5,116,$$,2,43.6773492,-79.3513541
Sisters & Co,887 Dundas Street West,Breakfast & Brunch,4.5,109,$$,2,43.65097,-79.41172
Zaad,348 Bloor Street West,Middle Eastern,4.5,58,$$,2,43.66672,-79.40455
Le Phenix,1263 Queen Street W,Canadian (New),4.5,21,,0,43.641608075821246,-79.43111082278233
Rosedale Diner,1164 Yonge Street,Diners,3.5,113,$$,2,43.68036,-79.3912299
Pho Tien Thanh,57 Ossington Avenue,Vietnamese,4.0,440,$,1,43.6455399,-79.41896
Swatow Restaurant,309 Spadina Avenue,Chinese,4.0,445,$$,2,43.65386120961627,-79.3980811441803
Corks,15 York Street,Tapas/Small Plates,4.0,27,$,1,43.64234,-79.38083
Oniguy,755 Dundas St W,Japanese,4.5,3,,0,43.65204,-79.40649
Paddler,1710 Queen Street W,Thai,4.5,6,,0,43.63909,-79.44515
Little Sister,102 Portland Street,Bars,3.5,23,,0,43.6452852,-79.4006871
Public School,90 Bloor Street E,Cafes,4.0,3,,0,43.6708779,-79.3845954
Miss Fu In Chengdu,637 Yonge St,Chinese,4.0,4,,0,43.66748,-79.38535
Maha's,226 Greenwood Avenue,Egyptian,4.0,573,$$,2,43.67167,-79.32853
The Butcher Chef,8 Harbour St,Steakhouses,4.5,11,,0,43.6430184,-79.3757759
Pastor Taco,245 Gerrard Street E,Ice Cream & Frozen Yogurt,4.5,9,,0,43.66190882473235,-79.36905132149519
Good Fork,1550 Dundas Street W,Breakfast & Brunch,4.0,383,$$,2,43.6499162,-79.4335594
The Eagle Twins Restaurant,954 St Clair Avenue W,Breakfast & Brunch,4.0,14,$,1,43.67981,-79.43602
Tsuchi Cafe,688 College St,Desserts,4.5,23,,0,43.6554483,-79.4176171
Café Polonez,195 Roncesvalles Avenue,Polish,4.5,283,$$,2,43.64514,-79.44831
Nam Wan,713 Gerrard St E,Cafes,4.5,13,,0,43.66628,-79.34804
Sakawa Coffee & Japanese Restaurant,867 Danforth Ave,Japanese,4.0,115,$$,2,43.67971,-79.33964
Poong Moon,6070 Yonge Street,Asian Fusion,4.5,26,,0,43.79058,-79.41854
The House On Parliament,454 Parliament Street,British,4.0,316,$$,2,43.66359,-79.36794
CANO Restaurant,1108 St Clair Avenue W,Italian,4.5,64,$$,2,43.67871,-79.44058
Tres Compadres,212 King Street W,Mexican,4.0,8,,0,43.64757637241541,-79.38641251779109
Cluck Clucks,222 The Esplanade,Chicken Shop,4.5,285,$$,2,43.6497687124273,-79.3660896960711
La Banane,227 Ossington Avenue,French,4.5,151,$$$$,4,43.64904,-79.4203
Marron Bistro,948 Eglinton Avenue W,Steakhouses,4.5,14,$$$,3,43.7005399,-79.4286599
Heavenly Perogy,400 Bathurst Street,Ukrainian,5.0,8,,0,43.65382,-79.40703
Bar Raval,505 College Street,Spanish,4.0,317,$$$,3,43.6558432,-79.4099433
Madam Boeuf And Flea,252 Dupont Street,Bars,4.5,7,,0,43.67524,-79.40636
Pantry,1094 Yonge Street,Breakfast & Brunch,4.0,21,$$,2,43.6783169543193,-79.3901964494139
The Rebel House,1068 Yonge Street,Pubs,3.5,122,$$,2,43.67763,-79.39008
Islas Filipino BBQ and Bar,1690 Queen Street W,Filipino,4.5,81,,0,43.6393,-79.4446
Tabule Middle Eastern Cuisine,810 Queen Street  E,Middle Eastern,4.0,197,$$,2,43.659652,-79.346481
Baretto Caffe,1262 Don Mills Road,Cafes,5.0,349,$$,2,43.74471,-79.34643
Cluny Bistro & Boulangerie,35 Tank House Lane,French,3.5,639,$$$,3,43.6505879,-79.3578962
El Pocho Antojitos Bar,2 Follis Avenue,Bars,4.5,80,$$,2,43.66963,-79.41338
Byblos Uptown,2537 Yonge St,Mediterranean,3.5,64,,0,43.71302,-79.39929
Opus Restaurant,37 Prince Arthur Avenue,Wine Bars,4.0,73,$$$$,4,43.66921,-79.3972299
Los Vietnamita Taqueria Shop,,Mexican,4.5,17,,0,43.6531331163807,-79.3829282270142
Riddle Room,579 Yonge Street,Cafes,4.5,185,$,1,43.6657555,-79.3847049
Mary Be Kitchen,21B St. Clair Avenue W,Canadian (New),4.5,66,$$,2,43.68769,-79.3949
Amano Trattoria,9 Church Street,Italian,4.0,16,,0,43.64778,-79.37319
Schmaltz Appetizing,414 Dupont Street,Delis,4.0,65,$$,2,43.67387,-79.41171
Linh Anh Vietnamese Cuisine,3290 Midland Avenue,Vietnamese,4.0,82,$$,2,43.80661491302401,-79.28954526627042
Favorites,141 Ossington Avenue,Salad,4.0,35,,0,43.6473606954857,-79.4201145725201
Azhar,96 Ossington Ave,Middle Eastern,4.0,11,,0,43.646326335923725,-79.4197334036354
DAM Sandwiches,363 Oakwood Avenue,Sandwiches,5.0,3,,0,43.68736,-79.43848
Barque Smokehouse,299 Roncesvalles Avenue,Barbeque,4.0,519,$$,2,43.6480097,-79.4496592
Imanishi Japanese Kitchen,1330 Dundas Street W,Japanese,4.0,101,$$,2,43.64969,-79.42657
Stratus,79 Wellington Street W,Canadian (New),4.0,50,$$$,3,43.64663,-79.38114
Chen Chen’s Nashville Hot Chicken,1184 Queen Street W,Chicken Shop,4.5,61,,0,43.6429634,-79.4257733
The Parlour,642 King St W,Pizza,4.0,33,,0,43.6444882,-79.4015886
The Cottage Cheese,64 Oxford Street,Indian,4.5,2,,0,43.65624,-79.40284
PŌPA,2901 Bayview Avenue,Burmese,3.5,45,$$$,3,43.76865378450744,-79.38658942522137
Beach Hill Smokehouse,172 Main Street S,Barbeque,4.5,140,$$,2,43.68409,-79.3005
Old Town Bodega,402 King St E,Cafes,5.0,9,,0,43.6542,-79.36099
Quanto Basta,1112 Yonge Street,Italian,3.5,42,$$,2,43.67874,-79.39051
Kung Fu Beef Chinese BBQ 真牛中式烤肉,460 Dundas St W,Barbeque,4.5,10,,0,43.65356,-79.39659
Barnsteiner's,1 Balmoral Avenue,Modern European,3.5,71,$$$,3,43.68554,-79.3933799
Detroit Pizzeria,1093 Bathurst Street,Pizza,4.5,17,,0,43.6730227,-79.414092
King Rustic,905 King Street W,Comfort Food,4.0,63,$$,2,43.6418019534315,-79.4121160358191
The Good Son,1096 Queen Street W,Pizza,4.0,211,$$$,3,43.6436501,-79.4227676
SOCO Kitchen + Bar,75 Lower Simcoe Street,Bars,3.5,232,$$,2,43.6426531322953,-79.3838465349876
Shatter Abbas,218 Queens Quay W,Persian/Iranian,4.0,26,,0,43.64008002021216,-79.38245042588952
Torch Pressed Sushi,507 Church St,Japanese,4.5,71,$$,2,43.6659093206019,-79.3808230385184
Atomic 10,145 Lauder Ave,Mexican,4.5,23,,0,43.67849,-79.43952
Govinda's,243 Avenue Road,Vegetarian,4.0,42,$,1,43.67684518603757,-79.3972886196434
Hunters Landing,82 Fort York Blvd,Comfort Food,3.5,232,$$,2,43.64002,-79.39673
Fullaluv Bar & Grill,1709 Jane Street,Bars,4.0,11,,0,43.7038731177304,-79.5038190856576
Carisma,15 Toronto Street,Italian,4.0,194,$$$,3,43.65032,-79.37596
Sansotei Ramen,115 Fort York Boulevard,Ramen,4.0,93,$$,2,43.63905,-79.3982599
Pinata Tacos,1597 Dundas Street W,Mexican,5.0,2,,0,43.64968375339061,-79.43489454260916
O’SOMAE,357 Broadview Ave,Breakfast & Brunch,4.5,24,$$,2,43.6653004,-79.3522633
Lechon Republik,1 Romar Crescent,Filipino,5.0,3,,0,43.7061628186434,-79.4424132630229
Tocino Boys,214 Ossington Ave,Street Vendors,4.5,9,$,1,43.6492443729602,-79.4209552556276
Zezafoun Syrian Cuisine,4 Manor Road E,Syrian,4.5,112,$$,2,43.70267,-79.39712
Egg Club,88 Dundas Street E,Coffee & Tea,4.5,121,,0,43.65655,-79.37793
Sorrel,1158 Yonge Street,Mediterranean,3.5,32,$$$,3,43.6802406,-79.3911819
Barcelona Gourmet,777 Danforth Avenue,Tapas/Small Plates,4.5,6,,0,43.67934,-79.34202
Imm Thai Kitchen,651 College Street,Thai,4.5,145,$$,2,43.65484,-79.41598
Bar Fancy,1070 Queen Street W,Chicken Shop,4.0,133,$$,2,43.64382,-79.42143
Local 1794,1794 Danforth Avenue,Canadian (New),4.0,117,$$,2,43.68459,-79.31881
Como En Casa,565 Yonge Street,Mexican,4.0,241,$,1,43.6653391464388,-79.3844996650524
Stelvio,791 Dundas Street W,Italian,4.0,126,$$,2,43.65168,-79.40769
Sidebar,161 Danforth Avenue,Pizza,4.0,21,,0,43.67627,-79.35676
Marvelous by Fred,224 Queen Street W,Desserts,4.5,54,$,1,43.65038,-79.38995
Dalbam,640 Church Street,Korean,5.0,1,,0,43.669914,-79.383017
Hancook Cheese Dakgalbi,605 Bloor Street W,Korean,4.0,82,$$,2,43.66457,-79.41304
Otto's Berlin Döner,256 Augusta Avenue,German,4.0,272,$$,2,43.6563397,-79.4029066
ēst Restaurant,729 Queen Street E,Canadian (New),4.0,20,,0,43.6589329977133,-79.3490209814005
Bar Vendetta,928 Dundas Street W,Italian,4.5,27,,0,43.65098,-79.41324
George Restaurant,111 Queen Street E,Canadian (New),4.5,292,$$$$,4,43.65337263523713,-79.37432933100068
St. Matthew's BBQ Chicken,527 Rogers Rd,Portuguese,4.5,31,$$,2,43.68209,-79.46899
Brown Donkatsu,138 Dundas Street W,Korean,4.5,10,,0,43.655613163214525,-79.38487719999999
Simone's Caribbean Restaurant,596 Danforth Avenue,Caribbean,4.5,144,$$,2,43.67884,-79.34654
Bawara,1570 Bloor St W,Indian,4.5,9,,0,43.65632,-79.45387
Mom's Pan-Fried Buns,189 Dundas Street W,Chinese,4.5,10,,0,43.65532939295268,-79.3866192829175
Taverniti,591 College Street,Italian,4.0,159,$$,2,43.65511,-79.41348
Hokkaido Ramen Santouka,91 Dundas Street E,Ramen,4.0,885,$$,2,43.656321731393,-79.377499580039
Fusaro's,294 Richmond Street East,Italian,4.0,91,$$,2,43.65341,-79.36956
The Ace,231A Roncesvalles Avenue,Comfort Food,4.0,194,$$,2,43.646122,-79.448823
Isaan Der,2961 Dundas Street W,Thai,4.0,115,$$,2,43.6652858,-79.4679385
Her Chef,599 Bloor Street W,Asian Fusion,4.5,61,$$,2,43.66457,-79.41292
Tacos El Asador,689 Bloor Street W,Mexican,4.0,323,$,1,43.6636499,-79.41686
Itacate,998 St. Clair Avenue W,Mexican,4.5,56,$$,2,43.6793908547042,-79.4371611624956
Sushi Maido Japanese Restaurant,364 Bloor Street W,Japanese,4.0,76,$$,2,43.6664314,-79.405632
Hacienda las Américas,424 College Street,Mexican,4.0,69,$$,2,43.65688,-79.40703
Thairoomgrand,288 Eglinton Avenue W,Thai,4.5,21,$$,2,43.7049801,-79.4077478
Piano Piano,55 Colborne Street,Pizza,3.5,4,,0,43.64897516389887,-79.37469209999999
Lake Inez,1471 Gerrard Street E,Bars,4.5,92,$$$,3,43.67234,-79.32064
Canoe,66 Wellington Street  W,Canadian (New),4.0,736,$$$$,4,43.646954,-79.382159
Wings n Bites,208 Queens Quay W,Chicken Wings,5.0,1,,0,43.63997902017403,-79.38122301799643
Terroni,1095 Yonge Street,Italian,3.0,318,$$$,3,43.6800112830789,-79.3905191478574
The Daily Dumpling Wonton Co,792 College St,Dumplings,4.0,38,,0,43.654802780329,-79.4212308526039
Burger Drops,116 Atlantic Ave,Burgers,4.5,62,,0,43.6396428046657,-79.4212432595327
Chica's Nashville Hot Chicken,2853 Dundas Street W,Chicken Shop,4.5,122,$$,2,43.66518,-79.46423
Storm Crow Manor,580 Church Street,Bars,4.0,137,$$,2,43.6667489584503,-79.3816431239247
Jules Bistro,924 Queen Street West,French,4.0,75,$$$,3,43.64502,-79.41592
Khau Gully,1991 Yonge Street,Indian,4.0,96,$$,2,43.70055,-79.39673
Yummy Yummy Dumplings,79 Huron Street,Chinese,4.0,301,$$,2,43.6537999,-79.39598
Frankie's,892 Queen Street E,Italian,4.0,37,,0,43.66054,-79.343175
Naan & Kabob,691 Yonge Street,Afghan,4.0,140,$$,2,43.66905,-79.38606
Si Lom Thai Bistro,534 Church Street,Thai,4.0,193,$$,2,43.66503,-79.38082
Bar Mercurio,270 Bloor Street W,Italian,3.0,56,$$$,3,43.6674817706316,-79.4006463811387
Hotopia,45 Carlton Street,Chinese,3.5,26,,0,43.66138,-79.3804
Ko'ox Hana,214 Augusta Avenue,Mexican,5.0,11,$$,2,43.65473,-79.40231
The Best Kept Secret,6 Eugene Street,Italian,2.5,2,,0,43.7073078,-79.468292
Sansotei Ramen,179 Dundas Street W,Ramen,4.0,933,$$,2,43.655,-79.38643
Maxx's Kitchen,111 Princes' Boulevard,Canadian (New),3.5,9,,0,43.6338577,-79.4123139
Sea Witch Fish and Chips,636 Saint Clair Avenue W,Fish & Chips,4.0,136,$$,2,43.6822185,-79.4239619
Oyster Mine,2035 Yonge Street,Seafood,4.0,35,,0,43.701741,-79.3970147
Indian Roti House,256 Queens Quay W,Indian,4.0,223,$$,2,43.6394,-79.38546
Avant Gout Restaurant,1108 Yonge Street,French,4.0,21,,0,43.67864,-79.39045
Eat Yet,409 Spadina Avenue,Taiwanese,4.5,7,,0,43.6568590804503,-79.39932183325367
Birria Catrina,131 Roncesvalles Avenue,Mexican,4.5,3,,0,43.643151,-79.447597
Grey Gardens,199 Augusta Avenue,Wine Bars,4.5,124,$$$,3,43.6537999,-79.40143
Egg Bae,189 Augusta Avenue,Breakfast & Brunch,4.0,206,$,1,43.653418218123,-79.4014396490667
Reign Restaurant + Bar + Bakery,100 Front St W,Steakhouses,4.0,25,,0,43.64558198366306,-79.38185346634992
Amal,131 Bloor Street W,Lebanese,3.5,64,,0,43.6687639,-79.3923972
Yupdduk Bloor,612 Bloor Street W,Korean,4.0,26,,0,43.66473,-79.4138
Dice Fruit Bar & Cafe,162 Cumberland Street,Juice Bars & Smoothies,4.5,15,,0,43.6698573594879,-79.3932969868183
bb.q Chicken,43 Elm St,Chicken Shop,4.5,15,$$,2,43.65728792282371,-79.38379123806953
Scaddabush Italian Kitchen & Bar,200 Front Street West,Italian,3.5,268,$$,2,43.644834,-79.385439
Dave's Hot Chicken,2066 Yonge Street,Chicken Shop,4.0,22,,0,43.70189,-79.39763
Napoli Centrale,964 Bathurst Street,Italian,4.5,65,$$,2,43.6695182,-79.4129745
Town Crier Pub,115 John Street,Pubs,4.0,233,$$,2,43.648038,-79.39009253558704
Lambo's Deli & Grocery,176 Bellwoods Avenue,Delis,4.5,36,,0,43.65078,-79.41295
Eastside Social,1008 Queen Street E,Seafood,4.5,80,$$,2,43.661432,-79.339113
Saku Sushi,478 Queen Street W,Sushi Bars,4.0,526,$$,2,43.6482,-79.4003
Nodo - Junction,2885 Dundas Street West,Italian,4.0,204,$$,2,43.6653383989619,-79.4656616449356
Herby Restaurant,397 Danforth Ave,Persian/Iranian,4.5,35,,0,43.6774,-79.35147
TORA,612B-3401 Dufferin Street,Japanese,4.0,206,$$$,3,43.7244555742087,-79.45526187686
Oji Seichi,354 Broadview Avenue,Ramen,4.0,27,$$,2,43.66509,-79.35265
Mangia & Bevi,260 King Street E,Italian,4.0,234,$$,2,43.6522238965965,-79.366307258606
Nove Trattoria,1406 Yonge St,Italian,4.0,58,$$,2,43.68674,-79.3937399
Phat Kaphrao,3016B Bathurst Street,Thai,4.5,38,,0,43.7179405382064,-79.4297083094716
The Pie Commission,927 The Queensway,Fast Food,4.5,259,$,1,43.6240399,-79.5112045
King's Tacos,1190 St Clair Avenue W,Mexican,4.0,80,$$,2,43.67803,-79.4440599
Mr.Tonkatsu,520 Bloor Street W,Japanese,4.0,192,$$,2,43.66541,-79.41074
Season Six,188 Ossington Ave,Salad,5.0,8,,0,43.64852948725232,-79.42060237123773
Grazie Ristorante,2373 Yonge Street,Italian,4.0,476,$$,2,43.70934,-79.39852
Casamiento,787 Dupont Street,Salvadoran,5.0,25,,0,43.6705823,-79.4260687
The Pomegranate Restaurant,420 College Street,Middle Eastern,4.0,195,$$,2,43.6569,-79.40694
Bar Neon,1226 Bloor Street W,Bars,4.0,72,$$,2,43.6591711775313,-79.439263343811
Colombian Street Food by Cookie Martinez,1565 Dupont Street,Colombian,4.5,2,,0,43.66532722529222,-79.45313431842331
Mexico Lindo,1618 Bayview Ave,Mexican,4.0,70,$$,2,43.706473,-79.3756
Union,72A Ossington Avenue,French,4.0,238,$$$,3,43.64577,-79.41974
Founder,1282 Dundas St. W,Cocktail Bars,4.0,27,,0,43.6496799,-79.42543
Simit & Chai,787 King Street W,Coffee & Tea,4.0,123,$$,2,43.6429732,-79.4066583
Banh Mi Ba Le,538 Dundas Street West,Vietnamese,4.5,56,$,1,43.65289,-79.39915
Tabule Restaurant,2009 Yonge Street,Middle Eastern,4.0,282,$$,2,43.700983,-79.396863
Adobar,200 Dundas St E,Filipino,5.0,5,,0,43.65738,-79.37396
Le Sélect Bistro,432 Wellington Street W,French,4.0,454,$$$,3,43.643905577145816,-79.39685231028895
Sinaloa Factory,551 Danforth Avenue,Sushi Bars,4.0,14,,0,43.67824,-79.34748
Kiro Sushi,4 Collier Street,Japanese,4.0,78,$$,2,43.6722662302551,-79.3874411896101
Agora,921 Queen St W,Greek,4.5,9,,0,43.6452833329725,-79.4126565009356
Birria Catrina,214 Augusta Avenue,Mexican,4.0,30,,0,43.6547751,-79.4022239754631
Pho 90,90 Weston Road,Vietnamese,4.0,40,$$,2,43.674188484145354,-79.46971396637178
Playa Cabana Taqueria,21 St Clair Avenue E,Mexican,4.5,9,,0,43.68808,-79.39277
Aloette,171 E Liberty Street,Burgers,4.0,10,,0,43.63832,-79.41776
8Mile Detroit Style Pizza,9 Charles Street West,Pizza,4.5,55,,0,43.66848,-79.38678
Sophie's,1614 Bayview Avenue,Breakfast & Brunch,4.0,130,$$,2,43.70632,-79.37561
Sansotei Ramen,65 Front Street W,Ramen,4.5,13,,0,43.645322,-79.380408
Naan and Chai,712 Queen Street W,Pakistani,4.0,38,,0,43.646337,-79.4088734
Arabesque Middle Eastern Foods,1068 College Street,Middle Eastern,4.5,30,$,1,43.65307,-79.43096
Raps Authentic Jamaican,1541 Eglinton Avenue W,Caribbean,4.0,98,$$,2,43.69746,-79.441
Positano Restaurant,633 Mount Pleasant Road,Pizza,4.0,61,$$,2,43.70471,-79.3884
Nusa Dua Kitchen & Bar,56 Bathurst Street,Indonesian,3.5,26,,0,43.64221,-79.40224
D Azur,60 Yorkville Avenue,French,4.0,1,,0,43.67162,-79.38971
Mapo Pocha Soju Bar,680 Bloor Street W,Korean,5.0,3,,0,43.6640448,-79.41676136022515
DOVA,229 Carlton Street,Italian,4.0,20,,0,43.6639976576369,-79.3686444684863
Food 88,55 Sherbourne Street,Vietnamese,4.5,10,$,1,43.65168,-79.36812
Oakwood Hardware Food & Drink,337 Oakwood Avenue,Gastropubs,4.0,53,$$,2,43.6862185521566,-79.4381985948438
Buk Chang Dong Soon Tofu,691 Bloor Street W,Korean,4.0,478,$$,2,43.66363,-79.4169299
Pukka Pukka,2633 Yonge Street,Indian,5.0,11,,0,43.71536,-79.39986
SHINYI Handmade Dumplings,641 Yonge Street,Dumplings,4.0,12,,0,43.6678187,-79.385492
Sunrise House,661 Bloor Street W,Korean,4.0,216,$$,2,43.66401,-79.41561
Bonimi,3319 Bloor Street  W,Cafes,4.5,44,$$,2,43.64513,-79.52041
El Catrin Destileria,18 Tank House Lane,Mexican,3.5,1009,$$$,3,43.65052,-79.35883
Henrietta Lane,394 King Street E,Cafes,4.5,13,,0,43.654067,-79.361242
Now Acor,932 Dundas Street W,Restaurants,4.0,1,,0,43.65096,-79.41333
Superfresh,384 Bloor Street W,Asian Fusion,4.0,29,$$,2,43.66632,-79.40655
Pho Linh,1156 College Street W,Vietnamese,4.0,238,$,1,43.65241,-79.43411
Bobbie Sue's Mac & Cheese,162 Ossington Avenue,Comfort Food,4.0,146,$,1,43.6478899,-79.42041
Hodo Kwaja,656 Bloor Street W,Bakeries,4.5,240,$,1,43.66438,-79.41557
Tut's Egyptian Street Food,567 King Street West,Egyptian,4.0,78,,0,43.6444283,-79.399433
Sunnyside Pavilion Cafe,1755 Lake Shore Boulevard W,Diners,3.0,55,$$,2,43.6377,-79.45739
Homemade Ramen,263 Spadina Avenue,Chinese,4.0,270,$$,2,43.65241,-79.39739
Moretti Caffe,188 Cartwright Avenue,Italian,4.5,3,,0,43.72192,-79.47011
BOKU,530 Yonge St,Ramen,3.5,27,,0,43.6640394,-79.3844623
Thai Nyyom,1419 Bloor Street W,Thai,4.5,20,,0,43.6571,-79.4477
Yukashi Japanese Cuisine,643A Mount Pleasant Road,Japanese,4.5,41,$$$$,4,43.7049499,-79.3884999
Khmer Thai Restaurant,1018 St Clair Avenue W,Thai,4.0,138,$$,2,43.67937,-79.43781
Fudao noodle house,358 Spadina ave,Chinese,4.0,142,$$,2,43.65461,-79.39905
Qin's Garden,435 Spadina Avenue,Chinese,4.0,17,,0,43.65739,-79.39933
Sofia,99 Yorkville Ave,Italian,3.0,74,$$$$,4,43.670704433357436,-79.39183766134225
Salt and Tobacco,521 Parliament Street,Pizza,4.0,61,$$,2,43.66536,-79.3681299
Cafe Landwer - Yorkdale,3401 Dufferin Street,Cafes,4.5,18,,0,43.72446857911882,-79.4552650725474
The Bullger Burger&Steak,348 Queen Street E,Burgers,4.5,6,,0,43.65587,-79.36433
Takoyaki6ix,160 Baldwin Street,Asian Fusion,4.5,7,,0,43.6550705,-79.3999101
Viaggio,1727 Dundas St W,Italian,4.5,23,,0,43.6499275270851,-79.4390283152461
Indian Desire,469 Bloor Street W,Indian,4.5,15,,0,43.6659,-79.40672
Judaline,162 Danforth Avenue,Canadian (New),4.0,1,,0,43.67673584808673,-79.35742437257584
Flame Food+Design,2197 Bloor Street W,Canadian (New),4.5,33,,0,43.6511699407415,-79.4751231579362
Kiin,326 Adelaide Street W,Thai,4.0,205,$$$,3,43.647622,-79.3921
King Solomon and Queen of Sheba,360 Queen Street E,Ethiopian,4.0,23,$$,2,43.6558058248416,-79.3639365211129
Reverie at The Park,569 College Street,Cocktail Bars,4.5,34,$$$,3,43.655164300000045,-79.4127852411055
Oretta Midtown,2131 Yonge Street,Breakfast & Brunch,3.5,35,,0,43.70383,-79.39718
The Shore Club - Toronto,155 Wellington Street W,Seafood,4.0,197,$$$,3,43.6456057670746,-79.3865740299225
L’Avenue,583 Parliament Street,French,4.5,3,,0,43.667407545592894,-79.36909639999999
Writers Room Bar,4 Avenue Road,Bars,3.5,6,,0,43.6692689,-79.3950356
Rio 40 Restaurant,1256 Saint Clair Avenue West,Brazilian,4.0,63,$$,2,43.67747,-79.44643
Chiang Mai Thai Kitchen,353 Danforth Avenue,Thai,4.5,13,,0,43.67715517577863,-79.35294013470411
Joni Restaurant,4 Avenue Road,Bistros,4.0,13,,0,43.66919,-79.39471
The Commoner,2067 Dundas Street W,Gastropubs,4.0,59,,0,43.65191,-79.44797
Sunny’s Chinese,6-14 60 Kensington Avenue,Chinese,4.5,10,,0,43.65431825959942,-79.40086289999999
J's Steak Frites,1198 Queen Street W,Steakhouses,4.5,10,,0,43.64277418086487,-79.4265867
Scotty Bons Caribbean Grill,402 Bloor St W,Caribbean,4.0,17,,0,43.6660368,-79.4077334
Batifole Restaurant,744 Gerrard Street E,French,4.0,80,$$$,3,43.66678,-79.34733
Roti Cuisine of India,308 Dupont Street,Indian,4.5,118,$$,2,43.67479,-79.40836
Hot Pot Restaurant,1545 Eglinton Avenue  W,Caribbean,4.5,27,$$,2,43.6974669682301,-79.4413521140814
Teller's Bar and Lounge,One King West Hotel & Residence,International,4.5,5,$$,2,43.64882,-79.37805
Poke Guys,112 Elizabeth Street,Hawaiian,4.0,373,$$,2,43.65484,-79.38517
Papamio's,934 Manning Avenue,Cafes,5.0,11,,0,43.67196,-79.41928
RYUS Noodle Bar,786 Broadview Avenue,Ramen,4.0,386,$$,2,43.6771,-79.35905
Tea N Bannock,1294 Gerrard Street E,American (Traditional),4.5,44,$$,2,43.671182,-79.3273557
Dessert Lady Café,1 Sultan Street,Desserts,4.0,18,,0,43.6687719038749,-79.3902338231143
El Sazón Mexicano,1284 St Clair Avenue W,Mexican,4.5,9,,0,43.6770608350774,-79.4477873673694
Woods Restaurant & Bar,45 Colborne Street,Canadian (New),4.0,90,$$$,3,43.6489963,-79.3750324
Edomae Kiyomi,76 Gerrard Street E,Sushi Bars,4.0,25,$$$$,4,43.66012,-79.37813
Bacan,369 Roncesvalles Avenue,Argentine,3.5,19,,0,43.6501,-79.4502
La Carnita,106 John Street,Mexican,3.5,441,$$,2,43.6475853662168,-79.3903893378564
Avenue Open Kitchen,7 Camden Street,Diners,4.0,136,$,1,43.647147,-79.3962388
Little Sister,2031 Yonge Street,Indonesian,3.5,216,$$,2,43.7015676,-79.3970751
Rincón Paisa,1881 Eglinton Avenue W,Colombian,4.0,1,,0,43.69525596181634,-79.45163436233997
Mapo Korean BBQ,708 Bloor Street W,Barbeque,4.0,61,$$,2,43.6639096,-79.4177539
The Carbon Bar,99 Queen Street East,Barbeque,4.0,407,$$$,3,43.6531872633836,-79.3747868765724
Knuckle Sandwich,969 Coxwell Avenue,Poutineries,4.0,117,$$,2,43.69626,-79.3285
Tasty's Caribbean Restaurant,405 Spadina Avenue,Caribbean,4.0,91,$,1,43.6567777,-79.3992574
MARKED Restaurant,132 John Street,Cocktail Bars,4.0,56,$$$,3,43.6486087,-79.3908633
Pho Ha Noi,372 College Street,Vietnamese,3.5,3,,0,43.65720728121961,-79.40486250000001
Mamakas Taverna,80 Ossington Avenue,Greek,4.0,224,$$$,3,43.64596,-79.41986
Upper Deck Bar,Toronto Island Marina,Cocktail Bars,4.0,7,$$,2,43.6236766256497,-79.3813701906625
Bi Bim Bap,950 Eglinton Avenue W,Korean,4.0,79,$$,2,43.70055,-79.4287204
Amsterdam Barrel House,87 Laird Drive,Breweries,3.5,64,$$,2,43.70618,-79.36112
Rudy,69 Duncan Street,Burgers,4.0,87,$,1,43.64973,-79.38907
Chito's Pizza,1308 Bloor Street W,Pizza,4.0,61,$,1,43.6585899,-79.4425399
Kinoya Sushi Bar,293 King Street W,Sushi Bars,4.0,69,,0,43.64629,-79.38997
La Carnita,501 College Street,Mexican,3.5,540,$$,2,43.656012010874,-79.4096839427948
Mattachioni,1617 Dupont Street,Italian,4.0,45,$$,2,43.6648758891217,-79.4549725527003
MADO - Dufferin,3300 Dufferin Street,Desserts,3.5,23,$$,2,43.72143559265705,-79.4568587490738
Pompette,597 College Street,Cocktail Bars,4.5,10,,0,43.65503,-79.41394
Lady Marmalade,265 Broadview Avenue,Breakfast & Brunch,4.0,624,$$,2,43.66319,-79.35134
Pii Nong Thai,1677 Bayview Avenue,Thai,4.0,64,$$,2,43.707555,-79.3756631
The Captain's Boil,2655 Yonge St,Cajun/Creole,4.5,33,,0,43.71582,-79.39989
The Cherie  Bistro,538 Church Street,Italian,4.0,22,,0,43.66512696886883,-79.3808928
Chop Chop,771 Dundas Street W,Chinese,4.0,76,$,1,43.6519395,-79.40702
Comal Y Canela,1692B Jane Street,Mexican,4.5,103,$$,2,43.70326,-79.50419
Gyu-Kaku Japanese BBQ,81 Church Street,Japanese,4.0,202,$$$,3,43.6515,-79.37482
Masseria,577 King Street W,Pizza,4.0,69,$$,2,43.64431,-79.39959
Rudy,619 College Street,Burgers,4.0,177,$$,2,43.65489,-79.41474
La Chilaca Taqueria,214 Augusta Avenue,Mexican,4.5,62,$,1,43.654581,-79.4024681
Three Brothers Restaurant,657 The Queensway,Mediterranean,4.5,8,$$$$,4,43.6270902973831,-79.4986541569233
El Trompo Taco Bar,277 Augusta Ave,Mexican,4.0,352,$$,2,43.65591,-79.40227
Wow Sushi,11 Charles Street,Sushi Bars,4.0,424,$$,2,43.6685157490107,-79.3868207931519
Ueno,75 Sherbourne St,Sushi Bars,4.5,20,$$,2,43.65264,-79.36849
Bloom,596 Yonge street,Cafes,4.5,64,,0,43.66549,-79.38501
Merci Mon Ami,171 E Liberty St,Caterers,4.0,34,$$,2,43.63832,-79.41776
Lekker,237 Augusta Avenue,Waffles,4.5,102,$$,2,43.65469,-79.40175
Musoshin Ramen,9 Boustead Ave,Ramen,4.0,30,$$,2,43.6533636,-79.4521349
Keating Channel Pub & Grill,2 Villiers St,Pubs,4.0,44,$$,2,43.64763,-79.35337
Mr. X Kitchen,394 Bloor Street W,Asian Fusion,5.0,5,,0,43.66618,-79.40718
Fusaro's Kitchen,147 Spadina Avenue,Italian,4.0,153,$$,2,43.64808,-79.39556
Artisan Plus,122 Dundas St W,Noodles,4.0,55,$$,2,43.65578,-79.38444
WVRST Union Station,65 Front Street West,Beer Bar,4.0,61,$$,2,43.644936,-79.381269
Delicious Empanadas,2438 Dufferin Street,Colombian,4.5,14,$$,2,43.69816,-79.45156
Union Social Eatery,21 Saint Clair Avenue W,American (Traditional),4.0,167,$$,2,43.687794516424,-79.3950692564249
Young Tea,990 Saint Clair Avenue W,Bubble Tea,5.0,1,,0,43.6795572,-79.4369697
Limon,1968 Queen Street E,Middle Eastern,4.5,33,,0,43.6698837,-79.3017345
Flor de Sal,501 Davenport Road,Modern European,4.0,47,$$$,3,43.6775398,-79.4070129
My Roti Place,12 Queens Quay W,Indian,4.0,22,,0,43.6417148967486,-79.3757710173493
Athens Restaurant,707 Danforth Avenue,Greek,4.0,88,$$,2,43.6789599,-79.34341
Harbord House,124 Harbord Street,Pubs,3.5,111,$$,2,43.66284306860238,-79.40442251238142
Happy Burger,881 Yonge Street,Hot Dogs,4.5,12,$$,2,43.6743209,-79.3880618
Capocaccia Trattoria,1366 Yonge Street,Pizza,3.5,82,$$,2,43.6858784,-79.393189
Kupfert & Kim,100 Bloor Street W,Gluten-Free,4.5,9,,0,43.6697979431727,-79.391163289547
Roses New York,135 Fort York Boulevard,Persian/Iranian,3.0,54,$$,2,43.6388697,-79.3988715
Vietlicious Toronto,335 Yonge Street,Vietnamese,4.5,4,,0,43.6573398319754,-79.3810402974486
EPOCH Bar & Kitchen Terrace,181 Wellington St W,Gastropubs,4.0,12,,0,43.64513295896624,-79.38702542402709
Caramel Café,1059 Bloor Street W,Cafes,5.0,1,,0,43.66034466470012,-79.4325104
Le Paradis Brasserie Bistro,166 Bedford Road,French,3.5,109,$$,2,43.67506,-79.40025
Takht-e Tavoos,1120 College Street,Persian/Iranian,4.5,128,$$,2,43.6524676,-79.4329894
BlueBlood Steakhouse,1 Austin Terrace,Steakhouses,3.5,155,$$$$,4,43.6781099,-79.40948
Dakgogi,25 Wellesley Street E,Korean,3.5,30,$$,2,43.665029385454396,-79.38326930030159
Chick-fil-A,709 Yonge St,Fast Food,4.0,115,$$,2,43.669550169591965,-79.38614762542414
STK Toronto,153 Yorkville Avenue,Steakhouses,3.5,216,$$$$,4,43.6703238,-79.3941847
Harry's Charbroiled,293 Palmerston Avenue,Burgers,3.5,72,$$,2,43.65562528599897,-79.40989222586079
Stock Bar,2388 Yonge Street,Steakhouses,3.0,107,$$$,3,43.70925,-79.39937
Himalayan Kitchen,1526 Queen Street W,Indian,4.5,142,$$,2,43.6403,-79.43889
Three Kingdoms Pizza,5 Baldwin Street,Pizza,4.5,9,,0,43.65606780226923,-79.3924699
Enigma,23 St Thomas Street,Modern European,4.0,22,,0,43.6688888,-79.3906134
The Arch Café,293 Augusta Ave.,Breakfast & Brunch,4.5,13,,0,43.65634473576003,-79.40261429703932
Bao Mama,4419 Sheppard Avenue E,Asian Fusion,4.5,24,,0,43.7873714,-79.268684
Chat Bar Downtown,307 Spadina Avenue,Chinese,4.0,6,,0,43.6538019342198,-79.3980656951065
Sabor Carioca,1702 St Clair Ave W,Brazilian,5.0,1,,0,43.67464,-79.45927
Lucia,1595 Dupont Street,Italian,4.0,10,,0,43.66494,-79.45418
Actinolite Restaurant,971 Ossington Avenue,Canadian (New),4.0,85,$$$$,4,43.6678849,-79.4280907
Pie Bar,207 Queens Quay W,Pizza,3.5,46,$$,2,43.6382664027863,-79.3804673190485
Akai Sushi,168 Major Street,Japanese,4.0,91,$$,2,43.66259,-79.40505
Piano Piano,88 Harbord Street,Italian,3.5,296,$$$,3,43.66303229653549,-79.40288046153165
Kanto by Tita Flips,2986 Dundas Street W,Filipino,4.5,12,$$,2,43.6658062446667,-79.469048269093
Members Only Waffle house,252 Queen Street W,Waffles,4.5,15,,0,43.6500663,-79.3913874
Alexandros,5 Queens Quay W,Greek,3.5,143,$,1,43.64147,-79.37522
Ehwa J Bar,16 Isabella Street,Bars,4.0,59,$$,2,43.667825,-79.385215
The Poke Box,36 Toronto Street,Salad,4.5,176,$$,2,43.6505,-79.37657
Skylight Rooftop Bar,90 Bloor Street E,Desserts,3.5,7,,0,43.670892665592,-79.3845954
Dimmi Bar & Trattoria,140 Cumberland St,Italian,3.5,214,$$,2,43.67017,-79.3927
Deer Garden Signatures,770 Bay Street,Chinese,3.5,14,,0,43.660243034535995,-79.38589945435524
Zakkushi On Carlton,193 Carlton Street,Japanese,4.0,324,$$$,3,43.66343,-79.37062
Think It Pensa Italiano,196 Borden Street,Coffee & Tea,4.5,7,,0,43.6619200689594,-79.4072854910697
Frankie's,994 Queen Street W,Breakfast & Brunch,4.0,189,$$,2,43.6445099,-79.41842
M'Zaar Restaurant,668 Yonge Street,Lebanese,4.0,148,$,1,43.6672475,-79.3855441
Aish Tanoor,994 Eglinton Avenue W,Kosher,4.0,40,$$,2,43.70038,-79.42955
Yamato Japanese Restaurant,24 Bellair Street,Japanese,3.5,195,$$$,3,43.670701023097,-79.391142608675
Gordo EX Cafe,1048 Bathurst Street,Venezuelan,3.5,43,$$,2,43.6722312,-79.4143193
Osgoode Hall Restaurant,130 Queen Street W,Canadian (New),4.5,28,$$$,3,43.652187,-79.385138
Lucy Ethiopian Restaurant,1690 Danforth Avenue,Ethiopian,4.5,71,$$,2,43.6841128,-79.3207142
Ossington Stop,1543 Dundas Street W,Pubs,4.0,23,$$,2,43.649634426854185,-79.43327829246147
Death & Taxes Free House,1154 Queen Street W,American (Traditional),4.0,38,$$,2,43.64311,-79.42496
Orote,276 Havelock Street,Korean,4.5,6,,0,43.66018,-79.4324
Bamiyan Kabob,62 Overlea Boulevard,Afghan,4.0,153,$$,2,43.70779,-79.34344
Siempre Restaurant,348 Front Street W,Breakfast & Brunch,4.0,83,$$,2,43.643393311738,-79.3922074406298
Light Cafe,23 Baldwin Street,Cafes,4.0,243,$$,2,43.65594,-79.393
Bocconcini Toronto,96 Gerrard Street E,Pizza,4.5,23,,0,43.6603,-79.37748
Souv Like,708 Pape Avenue,Greek,4.5,85,$,1,43.67948,-79.34532
Akira Back,80 Blue Jays Way,Japanese,4.0,192,$$$$,4,43.64541,-79.3923
Terrazza,372 Harbord Street,Italian,4.0,50,$$,2,43.6590509,-79.4223089
Boukan,452 Kingston Road,Burgers,4.5,11,,0,43.67712,-79.30402
Pizzeria Badiali,181 Dovercourt Road,Pizza,4.0,60,,0,43.64613362136124,-79.4232162456155
Azabu,5 Glen Cameron Road,Japanese,4.5,11,,0,43.80555,-79.42004
Chew Chew's Diner,186 Carlton Street,Diners,4.0,106,$$,2,43.6634891,-79.3722871
The Carlton Restaurant,Holiday Inn,Canadian (New),4.5,7,,0,43.6617125,-79.3811043
Don Quixote,1331 1/2 St. Clair Avenue W,Portuguese,4.0,5,,0,43.67672,-79.44874
Joe Bird,207 Queens Quay W,Chicken Shop,3.5,109,$$,2,43.6383087592629,-79.3802657568199
Paracas Peruvian,992 St.Clair Avenue W,Peruvian,3.5,25,$$,2,43.6794411,-79.436944
Urban House,718 Queen Street E,Pubs,4.5,13,$,1,43.6590232165887,-79.3496101722121
Mashu Mashu Mediterranean Grill,387 Spadina Road,Mediterranean,3.5,36,$$,2,43.68835,-79.41231
Atai Bistro,3047 Dundas Street W,Moroccan,4.5,9,,0,43.66540485316184,-79.47101432830095
Trattoria Mercatto,220 Yonge Street,Italian,3.5,224,$$,2,43.65367,-79.38007
School Restaurant,70 Fraser Avenue,Bakeries,3.5,629,$$,2,43.63784,-79.42435
Completo,337 Broadview Ave,Latin American,4.5,13,,0,43.6648243976782,-79.3521867220123
Oroshi Fish Co,962 College Street,Japanese,4.5,17,,0,43.65359,-79.42735
Anejo,600 King Street W,Bars,3.5,54,,0,43.64474,-79.39992
Zao,421 Dundas Street W,Chinese,3.0,1,,0,43.65318,-79.39524
Eggspectation,483 Bay Street,Breakfast & Brunch,4.0,751,$$,2,43.6532721,-79.3812455
Saemaeul Sikdang,7335 Yonge Street,Korean,4.5,15,,0,43.8061909,-79.421228
Against the Grain,25 Dockside Drive,Canadian (New),2.5,294,$$,2,43.64365,-79.36633
KINKA IZAKAYA ANNEX,559 Bloor St W,Japanese,4.0,500,$$,2,43.665157,-79.410658
BBQ Express,1240 Bay Street,Fast Food,4.5,11,,0,43.6703239574042,-79.3906814977527
Soulas Modern Greek Cuisine,500 A Danforth Avenue,Greek,4.0,61,,0,43.6782533846538,-79.348819591105
Sassafraz,100 Cumberland Street,French,3.5,405,$$$,3,43.6702957,-79.3910686
Utsav,69 Yorkville Ave,Food Delivery Services,4.0,133,$$,2,43.67094,-79.39086
Salsa Venezuelan Street Food,341 Jane Streeet,Hot Dogs,4.5,12,,0,43.65731,-79.48719
Avenue Diner,222 Davenport Rd,Diners,2.5,23,$$,2,43.67484,-79.39716
Kellys Landing,123 Front Street W,Sports Bars,3.5,186,$$,2,43.6448899,-79.38305
The Comrade,758 Queen Street E,Lounges,4.0,83,$$,2,43.659392263038,-79.347948327349
Ten Miles BBQ,359 Spadina Avenue,Chinese,5.0,2,,0,43.65560554835875,-79.39881780195327
Tamasha,1835 Yonge Street,Bars,4.0,35,,0,43.6966941797291,-79.3960532918572
The Arepa Republic,76 Densley Avenue,Venezuelan,4.5,18,,0,43.7053574,-79.4712085
Robot Boil House,895 Yonge Street,Seafood,4.0,19,$$$,3,43.67471,-79.38819
Latin World,1229 Bloor Street W,Latin American,3.5,51,$$,2,43.6586,-79.44074
Pokito,420 Queen Street W,Hawaiian,4.0,158,$$,2,43.64864,-79.398
Lee Chen Bistro,813 Yonge Street,Dim Sum,3.5,173,$$,2,43.672372,-79.387436
Nando's Peri-Peri,832 Bay Street,Fast Food,3.5,227,$$,2,43.66223164,-79.38655451
Casa Manila,508 Danforth Avenue,Filipino,4.5,3,,0,43.678411482399575,-79.34886585921049
La Cantina Del Pueblo,671 College Street,Mexican,4.5,7,,0,43.6549768992403,-79.4171094259697
Umami Poke,1252 Yonge Street,Hawaiian,4.5,55,$$,2,43.68318,-79.39229
La Cubana,392 Roncesvalles Avenue,Cuban,3.5,229,$$,2,43.65087,-79.45106
Kono Pizza,,Pizza,4.5,2,,0,43.67434,-79.39653
EAT BKK Thai Bar & Restaurant ,513 Bloor Street W,Thai,4.0,18,,0,43.666331,-79.406586
Gus Tacos,1533 Queen St W,Mexican,4.5,11,,0,43.63946271337762,-79.44262970972214
Au Pain Doré,81 Front Street E,Coffee & Tea,5.0,8,,0,43.64873175966658,-79.3725058
The Dog and Tiger Kitchen and Bar,537 College St,Cocktail Bars,4.5,8,$$,2,43.65549,-79.41142
One Restaurant,116 Yorkville Avenue,Canadian (New),3.5,226,$$$$,4,43.6708799,-79.39323
Jumbo Empanadas,245 Augusta Avenue,Latin American,4.0,141,$,1,43.65487,-79.40188
Seoulicious,590 Yonge Street,Korean,3.5,76,$$,2,43.6653499,-79.38502
Benny’s Barbecue,2409 Yonge Street,Barbeque,4.5,9,,0,43.710364850816845,-79.39890089036582
Samba Brazil Eatery,1646 St Clair Avenue W,Brazilian,4.0,8,,0,43.67498,-79.45728
Flaming Stove,21 Davisville Avenue,Middle Eastern,4.5,65,$,1,43.6982689,-79.3957672
Four Four South Village,474 Yonge Street,Taiwanese,3.5,115,,0,43.6622887692154,-79.3836339335004
Buster's Sea Cove,120 Bremner Boulevard,Seafood,3.5,33,$$,2,43.6425663,-79.3830507
The Wood Owl,1380 Danforth Avenue,Tapas/Small Plates,4.5,8,,0,43.68261,-79.32813
Pita and Hummus,537 St Clair Ave W,Mediterranean,4.5,8,,0,43.68254,-79.42024
Pai Northern Thai Kitchen,1121 Castlefield Avenue,Thai,4.0,1,,0,43.70015,-79.45355
Mac & Cheesery,61 Manitoba Drive,Fast Food,2.0,3,,0,43.6349759327594,-79.4197499379516
El Charro,493 Danforth Ave,Mexican,3.0,11,,0,43.67782346337035,-79.34923801571131
Nodo Leslieville,1192 Queen Street East,Italian,4.0,35,,0,43.66311,-79.33162
Karahi Point,60 Overlea Boulevard,Pakistani,5.0,1,,0,43.70779595833205,-79.3443554
Café Boulud,60 Yorkville Avenue,Cafes,3.5,274,$$$$,4,43.6719213,-79.388922
Fonda Balam,802 Dundas Street W,Mexican,4.0,11,,0,43.6519299,-79.40876759999999
Pizzeria Libretto,545 King Street W,Pizza,4.0,117,$$,2,43.64432,-79.39874
Conspiracy Pizza,858 Eglinton Avenue E,Pizza,4.5,60,$$,2,43.7136567,-79.3651321
Fresh On Bloor,326 Bloor Street W,Vegan,3.5,334,$$,2,43.666863,-79.4035738
Harvest Green,200 Wellington Street W,Canadian (New),4.5,35,$,1,43.6461178,-79.3858032
The Federal,1438 Dundas Street W,Breakfast & Brunch,4.0,172,$$,2,43.6497699,-79.43011
Ultramen,134 Atlantic Ave,Ramen,4.0,21,,0,43.6400125690203,-79.421420249707
Dukes Refresher,73 Front Street East,American (Traditional),4.0,10,$$,2,43.6485525,-79.3729104
Chung Chun Rice Dog,615 Bloor Street W,Hot Dogs,4.5,69,,0,43.66443,-79.41375
The Carousel Café,Toronto Islands,American (Traditional),2.0,47,$$,2,43.6289467,-79.3944199
Helena's Magic Kitchen,122 St. Patrick St,American (Traditional),4.5,29,$,1,43.65355,-79.39014
Cali Mexican Grill,3250 Dufferin Street,Mexican,4.0,41,$,1,43.72017,-79.4562
Trios Bistro,525 Bay St,Canadian (New),4.0,21,$$,2,43.6545725,-79.3830233
Que Ling Restaurant,248 Boulton Avenue,Vietnamese,4.0,89,$,1,43.6658199,-79.34941
Loaded Pierogi,839 Queen Street W,Polish,4.0,74,$$,2,43.6458497542096,-79.4100153105222
Daimaru Sukiyaki,390 Silver Star Boulevard,Hot Pot,4.5,182,,0,43.8162865,-79.2962967
Guu Izakaya Toronto,1314 Queen Street W,Japanese,4.0,152,$$,2,43.6418673011168,-79.4310904074585
Ho Lee Chow,2204 Danforth Avenue,Chinese,1.0,18,$$,2,43.6867,-79.30985
Doner-Chi,750 Spadina Avenue,Middle Eastern,0.0,0,,0,43.666419604507006,-79.40390914678574
Oretta,633 King Street W,Italian,3.5,334,$$$,3,43.64392,-79.40163
Loaded Pierogi,524 Church Street,Bars,3.5,27,$$,2,43.6647044094439,-79.3806558570915
Omusubi Bar Suzume,707 Dundas Street W,Japanese,4.5,13,,0,43.65196365192331,-79.40483585396728
Hongkong Island Bakery & Cafe,2-248 Spadina Avenue,Desserts,4.0,20,,0,43.65159062214072,-79.3978597932543
Shoushin,3328 Yonge Street,Japanese,4.0,85,$$$$,4,43.73133,-79.40416
Darna,1613 Bayview Avenue,Middle Eastern,4.5,24,,0,43.70652,-79.37515
Mr.Tonkatsu,548 Yonge Street,Japanese,4.0,78,$$,2,43.66434,-79.38454
Yeondon Ball Katsu,209 Dundas Street W,Korean,4.0,6,,0,43.65477555248752,-79.38749059999999
7 Numbers Restaurant,516 Eglinton Avenue W,Italian,4.0,116,$$,2,43.7037199,-79.4137
Thai Noodle,62 Vaughan Road,Thai,3.5,56,$$,2,43.6823223153413,-79.4200096887758
Hemingway's Restaurant,142 Cumberland St,Bars,3.0,290,$$,2,43.67015,-79.39279
Pizza Banfi,333 Lonsdale Rd,Italian,4.0,35,$$,2,43.68846,-79.41289
T&T Roti Trinidad & Toronto Roti,Market 707,Caribbean,4.5,10,$,1,43.6521961365053,-79.4055628112739
Goods & Provisions,1124 Queen Street E,Bars,4.0,100,$$,2,43.66233,-79.33515
Smoke 'N' Roti,3320 Keele Street,Caribbean,5.0,16,,0,43.7444115,-79.4864724
Bistro Five61,561 Avenue Road,Canadian (New),5.0,4,,0,43.6878395,-79.401329
Kevin's Taiyaki,675 Bloor Street,Specialty Food,4.5,78,$,1,43.66381,-79.41621
Yu Seafood,3401 Dufferin Street,Desserts,4.0,58,,0,43.7248159,-79.4569045
Mira Mira,1963 Queen Street E,Diners,4.0,24,,0,43.66949989064692,-79.30164825171232
Loga's Corner,216C Close Avenue,Himalayan/Nepalese,4.5,165,$,1,43.64053,-79.43597
Habitant,260 Yonge St,Tapas/Small Plates,4.0,3,$$,2,43.65459,-79.38049
Hastings Snack Bar,5 Hastings Avenue,Polish,4.5,41,$,1,43.66381,-79.32893
Lobster Burger Bar,214 King Street W,Bars,4.0,69,$$,2,43.647443,-79.386768
Zelden's Deli and Desserts,1446 Yonge Street,Delicatessen,3.0,34,$$,2,43.6874773,-79.3939821
Chicken N' Dough Express,410 Bathurst Street,Chicken Wings,4.0,1,,0,43.65417,-79.40712
Archive,909 Dundas Street W,Wine Bars,4.0,39,$$,2,43.65084,-79.41243
Tacos Moras,547 St Clair Avenue W,Mexican,4.5,3,,0,43.68249492575934,-79.4206689
Bolet's Burrito,134 Lower Sherbourne,Mexican,4.0,119,$,1,43.65004,-79.36793
Campo,244 Jane Street,Spanish,4.0,56,$$,2,43.6551179748791,-79.4869590167577
My Secret Kitchen,316 Lakeshore Road E,Italian,5.0,18,$$,2,43.56204,-79.57502
Churrasqueira Martins,605 Rogers Road,Portuguese,3.5,71,$$,2,43.680761,-79.473499
Muni Robata,30 St Patrick Street,Japanese,4.0,38,,0,43.65129,-79.38926
BOLD Food Hub,5 Baldwin Street,Chinese,4.0,8,,0,43.6560587,-79.3924699
Penny's Hot Chicken,372 Yonge Street,Sandwiches,4.0,10,$$,2,43.658718803990666,-79.38227210193872
OMG Cafe & Tapas,755 Dovercourt Road,Cafes,0.0,0,,0,43.661537,-79.42943
Afrobeat Kitchen,1510 Queen Street W,African,4.0,1,,0,43.640425,-79.438448
The Monkey Bar,3353 Yonge Street,Canadian (New),4.5,43,$$$,3,43.73149,-79.40346
Sopung,140 Carlton Street,Korean,3.5,2,,0,43.66315,-79.37515
Balsamico Ristorante,2029 Yonge St,Italian,4.5,45,$$,2,43.70154,-79.39697
DeSotos Eatery,1079 St Clair Avenue West,Gastropubs,4.0,82,$$,2,43.6786263,-79.4396588
Steady's Jamaican Home Cooking,852 Pape Avenue,Caribbean,4.5,24,$,1,43.6839915,-79.3467715
Garleek Kitchen,1500 Queen Street W,Asian Fusion,4.5,48,$$,2,43.64046,-79.43811
Pho Anh Vu,3200 Dufferin Street,Vietnamese,4.0,70,$$,2,43.7183600176532,-79.4573690012284
Scotthill Caribbean Cuisine,1943 Avenue Road,Caribbean,4.5,36,$$,2,43.7339429812737,-79.419534355402
Konjiki Ramen Downtown,41 Elm Street,Ramen,4.0,108,$$,2,43.65729,-79.38358
Cantanhede O Bairradino,662 Lansdowne Avenue,Portuguese,4.0,40,$$,2,43.66255,-79.44487
Shitamachi Tendon Akimitsu,41 Elm Street,Japanese,3.5,66,$$,2,43.65729,-79.38358
Chelsea's,29 Howard Street,Filipino,2.5,2,,0,43.6711,-79.37488
Wah Too Seafood Restaurant,58 Centre Avenue,Seafood,4.0,32,$$,2,43.6547399,-79.3872
Churrasqueira Estrela,2275 Keele St,Portuguese,4.5,12,$,1,43.70278,-79.47647
Tam Vietnamese Street Food & Cafe,369 Keele Street,Vietnamese,4.5,9,,0,43.6652178595867,-79.4642772898078
Spaccio West,128A Sterling Road,Salad,3.5,5,,0,43.65363450430656,-79.44509881981541
Kensington Sushi Market,281 Augusta Avenue,Sushi Bars,4.5,23,,0,43.656036,-79.402388
Barista & Chef,1006 Saint Clair Avenue W,Mediterranean,4.5,53,$$,2,43.6794533,-79.4374528
The Momo House,685 Queen St W,Himalayan/Nepalese,4.0,4,,0,43.64678,-79.40493
Mi Mi Restaurant,688 Gerrard Street E,Vietnamese,4.0,135,$,1,43.66637,-79.34911
Chula Taberna Mexicana,1058 Gerrard Street E,Mexican,4.0,150,$$,2,43.6692562,-79.3359022
BAO,2-270 Spadina Avenue,Chinese,3.5,41,,0,43.6523896094244,-79.398137748683
Cabano's Comfort Food,75 Saint Nicholas Street,Comfort Food,4.5,75,,0,43.66767,-79.38642
Liberty Eats,129 Jefferson Avenue,Burgers,4.5,3,,0,43.63956414648586,-79.4218273088336
Jokbal Night Market,41 Sheppard Avenue E,Korean,5.0,1,,0,43.761768282050106,-79.40881019999999
Constantine,15 Charles Street E,Mediterranean,3.5,127,$$,2,43.66858,-79.38537
Gushi Japanese Street Food,707 Dundas Street W,Street Vendors,4.0,109,$,1,43.65179,-79.40485
Mallo,785  Bathurst Street,Coffee & Tea,5.0,45,$,1,43.6646307,-79.4107376
Impact Kitchen,573 King Street E,Coffee & Tea,3.5,145,$$,2,43.65620998282847,-79.35700120705611
La Vinia,2350 Lakeshore Boulevard W,Spanish,4.0,73,$$$,3,43.6164551,-79.4880219
Le Conciliabule,1300 Gerrard Street E,Bakeries,4.5,12,,0,43.671365,-79.3272249
Komi Banh Mi Bar,1100 Bloor St W,Vietnamese,4.5,8,,0,43.6602181,-79.434545
Chine Legendary Hot Pot & Noodles,327 Spadina Avenue,Chinese,4.0,211,$$,2,43.6545068365465,-79.3984092772007
Chae Chester Fried Chicken Express,23 Howard Street,Fast Food,4.0,10,$,1,43.6711,-79.37509
Haute Coffee,153 Dupont Street,Coffee & Tea,4.5,37,$,1,43.67562990990601,-79.40273767055231
Natural Japaneats,601 Christie Street,Japanese,5.0,4,,0,43.67996,-79.42406
Annex Social,1078 Bathurst Street,Mexican,5.0,2,,0,43.6724839,-79.4143709
Taqueria Gus,616 Gladstone Avenue,Mexican,5.0,3,,0,43.66309,-79.43556
Kitchen 57,212 King St W,Comfort Food,5.0,1,,0,43.64769,-79.38644
Pepper's Cafe,189 Wallace Avenue,Bars,4.0,14,$$,2,43.66218,-79.44457
PG Clucks,610 College Street,Sandwiches,4.0,192,$,1,43.65532,-79.41456
Banh Mi Boys,399 Yonge Street,Vietnamese,4.0,509,$,1,43.6590974,-79.3820781
Baguette & Co,2772 Dundas St W,Vietnamese,4.5,44,$,1,43.6654122,-79.4614958
Thai Country Kitchen,412 Spadina Ave,Thai,4.0,144,$,1,43.6561499,-79.39968
Bitter Melon,431 Spadina Avenue,Korean,4.5,2,,0,43.6573547,-79.399399
Impact Kitchen,1222 Yonge Street,Gluten-Free,3.5,11,,0,43.68216,-79.39186
La Palma,849 Dundas Street W,Italian,3.5,183,$$$,3,43.6512699,-79.41009
Trattoria Di Parma,785 Danforth Avenue,Italian,5.0,4,,0,43.67935,-79.34158
Isabella's Mochi Donut Boutique,2066 Queen St East,Japanese,4.5,134,$$,2,43.670795,-79.297255
MaMa Chef Korean Restaurant,648 Bloor Street W,Korean,4.0,67,$$,2,43.66444,-79.41534
Pat's Homestyle Jamaican Restaurant,558 Queen Street W,Caribbean,4.0,114,$,1,43.64753,-79.4032
Yin Ji Chang Fen,369 Spadina Ave,Chinese,4.0,41,,0,43.6558,-79.39878
Stock In Trade,307 Danforth Avenue,Butcher,5.0,30,$$,2,43.676984658374245,-79.35383800417185
Clockwork Champagne & Cocktails,100 Front Street W,Cocktail Bars,4.0,18,,0,43.64595,-79.38143
KANDL Artistique,88 Avenue Rd,Candle Stores,4.5,5,,0,43.67224,-79.39586
La Palette,492 Queen Street W,French,4.0,254,$$$,3,43.64797,-79.40098
Tokyo Sushi,33 St Joseph Street,Sushi Bars,4.0,135,$$,2,43.6655988169559,-79.3869840388907
Fried Chicken Master,628 Yonge Street,Chicken Shop,3.0,2,,0,43.666263,-79.385336
Bebo's Authentic Grill,533 Evans Avenue,Modern European,5.0,4,$$,2,43.612076702283,-79.5416979119182
Gallery Grill,7 Hart House Circle,Canadian (New),4.0,23,$$$,3,43.6636499,-79.3944999
Star Sushi,7 Mercer Street,Sushi Bars,4.5,15,,0,43.64572,-79.38984
The Greek Grill,128 O'Connor Drive,Greek,4.0,84,$$,2,43.69357,-79.3501
Khazana,261 Yonge Street,Indian,4.0,11,$$$,3,43.65521200510754,-79.38009663699903
German Doner Kebab,246 Queen Street W,Kebab,4.0,29,$$,2,43.65003605460389,-79.39082163450482
Charidise,27 Baldwin Street,Desserts,3.5,209,$$,2,43.65592,-79.39315
Miss Korea,687 Yonge Street,Korean,3.0,124,$$,2,43.669074,-79.385948
Union Chicken,65 Front Street W,Chicken Shop,3.5,139,$$,2,43.6448546600463,-79.3816612327145
BauZza BauZza,298 College St,Soup,3.5,32,,0,43.65798,-79.40163
Eggstatic,1568 Bayview Avenue,Breakfast & Brunch,4.5,135,$$,2,43.70549,-79.37534
Barberian's Steak House,7 Elm Street,Steakhouses,4.0,309,$$$$,4,43.6576,-79.38212
Azkadenya - Mezza Diner,235 Queen Street West,Middle Eastern,4.0,42,,0,43.65024,-79.38825
Kintako Japanese Restaurant,214 Laird Drive,Japanese,4.0,179,$$,2,43.711488,-79.3640926
Mulino,633 College Street,Italian,4.0,14,,0,43.65482,-79.41497
Noodle King,123 Queen Street W,Chinese,4.0,91,$,1,43.6514,-79.38312
The Morning After,88 Fort York Boulevard,Breakfast & Brunch,3.5,78,$$,2,43.64016441394448,-79.39714261165675
Flock Rotisserie + Greens,330 Adelaide Street W,Salad,4.0,122,$$,2,43.647493,-79.392508
Nespresso Boutique Bar,159 Cumberland Street,Coffee & Tea,4.0,61,$$,2,43.6697469,-79.3934129
Enoteca Sociale,1288 Dundas St W,Italian,4.0,318,$$$,3,43.6496799,-79.42567
The Original Grill,547 Danforth Avenue,Greek,4.0,22,$$,2,43.67812,-79.3475799
Loveless,1430 Dundas Street West,Cafes,4.0,23,$$,2,43.6497122617809,-79.4298768596303
Pi Co,1200 Bay Street,Pizza,3.5,112,$$,2,43.670165,-79.389908
Ju Sushi & Bar,383 Dundas Street E,Bars,4.5,7,,0,43.65875,-79.36822
The Rec Room,255 Bremner Boulevard,Arcades,3.0,327,$$,2,43.64125720750635,-79.38677926085168
Piri Piri Grill,1444 Dupont Street,Portuguese,3.5,52,$$,2,43.6662515314375,-79.4497762620449
Tuckshop Kitchen,1640 Dupont Street,Sandwiches,4.5,56,$,1,43.66499,-79.45568
Naan And Kabob,62 Laird Drive,Afghan,4.5,25,,0,43.7049057279802,-79.3614039241258
UFO Restaurant,241 Niagara St,Sandwiches,4.0,57,$$,2,43.64391,-79.40889
LoPan,503 College Street,Cocktail Bars,4.0,24,$$$,3,43.65574,-79.4098
Barrio Coreano,642 Bloor Street W,Korean,3.5,248,$$,2,43.664411943278395,-79.41512609658861
The Annex Commons,296 Brunswick Ave,Pizza,4.5,7,,0,43.66549,-79.40756
Ritz Restaurant,310 Donlands Avenue,Filipino,4.0,38,$,1,43.69187,-79.34219
The Dime,538 Queen Street West,Bars,3.5,89,$,1,43.6476526616345,-79.4026391208172
Bar Centrale,1095 Yonge Street,Wine Bars,3.5,6,$$,2,43.68,-79.39055
Carens Rosedale,1118 Yonge Street,French,2.5,45,$$,2,43.67891,-79.39053
Planta Cocina,10 Temperance St,Vegan,4.5,20,,0,43.65107,-79.37933
Beefing With 7,382 Spadina Ave,Chinese,3.5,9,,0,43.6552975,-79.3993692
Brick 'N' Cheese,678 College Street,French,5.0,6,,0,43.65529,-79.41683
Morgan's On the Danforth,1282 Danforth Avenue,Gastropubs,4.0,98,$$,2,43.68194,-79.3302284
Uncle Tony's,38 Wellington St East,Italian,4.0,74,$$,2,43.6486015,-79.3749695
Shalom Ethopian Restaurant,587 Parliament Street,Ethiopian,4.0,27,$$,2,43.6674999,-79.36904
Kitchen On Sixth,2976 Lake Shore Boulevard W,Breakfast & Brunch,4.5,47,$$,2,43.6005867949987,-79.5068445875054
E11even,15 York Street,Seafood,3.5,171,$$$,3,43.642801069778,-79.381241442969
Emma's Country Kitchen,810 Saint Clair Avenue W,Breakfast & Brunch,4.0,439,$$,2,43.68103,-79.4303599
Komi Banh Mi Bar,467 Danforth Ave,Vietnamese,4.5,5,,0,43.677746111159905,-79.35009129345417
Est West Cafe,700 University Ave,Sandwiches,4.0,62,$,1,43.65901,-79.39115
Galito's Flame Grilled Chicken,3-45 Overlea Boulevard,African,5.0,1,,0,43.7058562214437,-79.34584904462099
Music Garden Cafe,466 Queens Quay W,Coffee & Tea,4.0,41,$$,2,43.63765,-79.39306
Roywoods,121 Fort York Boulevard,Caribbean,3.5,104,$$,2,43.6391084709305,-79.3984367698431
Bach Yen,738 Gerrard Street E,Vietnamese,4.0,210,$,1,43.66684,-79.34756
Gold Standard,385 Roncesvalles Avenue,Sandwiches,4.5,24,$$,2,43.65056,-79.45043
Hokkaido Ramen Santouka,2057 Yonge St,Ramen,4.5,55,$$,2,43.7021299,-79.39708
Pinkerton Snack Bar,1026 Gerrard Street E,Tapas/Small Plates,4.0,66,$,1,43.66901,-79.33727
Imonay House Restaurant,665 Bloor Street W,Korean,4.0,89,$$,2,43.6641195,-79.4158477
The Rib House Restaurant,1239 Woodbine Avenue,American (Traditional),4.0,13,$$,2,43.69325,-79.31571
La Vecchia Ristorante,90 Marine Parade Dr,Italian,3.5,38,,0,43.625476,-79.4774428
Kimchi House,586 Bloor St W,Korean,4.0,52,$$,2,43.66495,-79.41271
Cibo Wine Bar,133 Yorkville Avenue,Wine Bars,3.0,182,$$$,3,43.67047,-79.3936
Slanted Door,442 Bloor Street W,Cafes,4.0,14,$,1,43.66585,-79.40892
Pasaj,1100 Queen Street E,Bakeries,4.0,40,,0,43.66218596039454,-79.3358078380287
Lil Joe Cucina & Bar,1054 Gerrard Street E,Bistros,4.5,18,,0,43.66927,-79.33615
Pizzeria Libretto,221 Ossington Avenue,Pizza,4.0,564,$$,2,43.64898,-79.42021
Morocco House,876 Browns Line,Moroccan,3.5,69,$$,2,43.609931,-79.549238
Cafe Belong,550 Bayview Avenue,Cafes,3.0,106,$$$,3,43.684515,-79.36512
Ladybug Tavern,890 College Street,Pizza,0.0,0,,0,43.65407829999999,-79.42509960383177
Darvish Restaurant,508 Yonge Street,Persian/Iranian,4.0,112,$$,2,43.66337,-79.38412
BOM DIA Café & Bakery,1205 Queen Street W,Bakeries,4.5,20,,0,43.64187401413702,-79.42880675196648
Daol Korean Restaurant,1345 Queen St W,Korean,4.5,7,,0,43.64095574586912,-79.43433107552697
Pi Co,180 Bloor St W,Pizza,4.0,2,,0,43.6688,-79.39492
Iron Rooster,373 Spadina Avenue,Chicken Wings,4.0,6,,0,43.6559,-79.39882
Door FiftyFive,55 Lakeshore Road E,Southern,4.0,161,$$,2,43.55224,-79.58444
Jaclyn's,1588 Queen Street E,Caribbean,4.5,14,,0,43.66627,-79.31802
Pharaoh's Kitchen,7 Queens Quay E,Egyptian,5.0,2,,0,43.64183,-79.37391
Rustle & Still Café,605 Bloor Street W,Coffee & Tea,4.5,151,$,1,43.66457,-79.41304
Atlantis Authentic Greek Cuisine,526 Danforth Avenue,Greek,4.0,57,$$,2,43.67851060686441,-79.34825594792811
Gus Tacos,225 Augusta Avenue,Mexican,4.0,71,,0,43.6543821,-79.401655
The Captain's Boil,476 Yonge St,Seafood,3.5,230,$$,2,43.66237,-79.38378
Dumpling Dumpling,1116 Dundas St W,Dumplings,5.0,3,,0,43.64971,-79.42023
BeaverTails,145 Queen's Quay W,Desserts,4.0,85,$,1,43.63980158676657,-79.38012714543224
Karahi Boys,741 Queen Street W,Pakistani,4.0,30,,0,43.64635131349145,-79.4069366902113
Miznon,1235 Bay Street,Middle Eastern,0.0,0,,0,43.6708883,-79.38967699999999
Kitaya,890 Don Mills Road,Japanese,4.0,31,,0,43.7258312046255,-79.34168927371502
Bread & Butter,507 Mount Pleasant Rd,German,3.5,45,$,1,43.7016,-79.38708
Morellina’s,146 Christie Street,Cafes,5.0,10,,0,43.6672495042775,-79.4199987906084
Yuzu No Hana,236 Adelaide Street W,Sushi Bars,4.0,570,$$$,3,43.64847,-79.38834
The Pour House Pub And Kitchen,182 Dupont Street,Pubs,3.0,131,$$,2,43.6758,-79.40385
Sue Fung's Dim Sum Canteen,356 College Street,Dim Sum,4.0,16,,0,43.65746621183022,-79.4043148
Chef Mustafa,516 Danforth Avenue,Turkish,4.5,3,,0,43.6783582881424,-79.34863585978746
Lox + Schmear,1030 St Clair W,Bagels,4.5,40,$,1,43.67929,-79.43823
Dang Smoke BBQ,,Food Trucks,5.0,4,$,1,43.6617164611816,-79.3908462524414
Aztec's Mine,1986 Bloor Street W,Mexican,4.0,105,$$,2,43.65302,-79.4684988
Kibo Summerhill,7 Walker Ave,Sushi Bars,3.5,37,$$,2,43.6827471,-79.3922553
Paik’s Noodle,1549 Steeles Avenue E,Korean,4.5,10,,0,43.80524946505166,-79.384046
Country Style Hungarian Restaurant,450 Bloor Street W,Hungarian,3.5,128,$$,2,43.66579,-79.409
Ascari,1111 Queen Street E,Italian,4.0,129,$$$,3,43.6619301,-79.3353424
Queen Bee,680 College Street,Vietnamese,0.0,0,,0,43.65161896,-79.38359833
Nodo Liberty,120 Lynn Williams Street,Italian,4.0,7,,0,43.63907691563342,-79.4177271
Churrasco of St Lawrence,91 Front Street E,Barbeque,4.0,34,$,1,43.6490099,-79.37184
MEXITACO,1109 Victoria Park Avenue,Mexican,4.0,151,$$,2,43.70862,-79.29554
Ha Gow Dim Sum House,988 Danforth Avenue,Dim Sum,4.0,116,$,1,43.68057,-79.33756
Isaan Der,730 Queen St E,Thai,4.0,21,,0,43.659162028754686,-79.34912266011887
A Bite of Sichuan,5 Baldwin Street,Chinese,4.0,8,,0,43.6560587,-79.3924699
El Tenedor,909 Yonge St,Spanish,5.0,4,,0,43.67512,-79.38837
Pho Pasteur,525 Dundas Street W,Vietnamese,3.5,213,$$,2,43.65248,-79.39892
Stop BBQ Chicken,1216 Dufferin Street,Portuguese,4.0,11,$,1,43.66585,-79.43811
Season Six,216 Ossington Avenue,French,4.5,4,,0,43.64903,-79.4209
Porchetta & Co,545 King Street W,Sandwiches,4.0,194,$$,2,43.64432,-79.39874
Naomi Universal Cuisine,900 Don Mills Road,Chinese,4.0,21,,0,43.72669843894298,-79.34195306494291
The Miller Tavern,31 Bay Street,Bars,3.0,104,$$,2,43.6423578537475,-79.377305119129
Freestyle Farm Luncheonette,507-477 Richmond Street W,Chinese,4.5,2,,0,43.6474515,-79.3982377
Naomi,112 Atlantic Ave,Japanese,4.0,19,$,1,43.63939,-79.42124
RH Courtyard Restaurant at RH Toronto,3401 Dufferin Street,Cafes,4.0,167,$$$,3,43.72490335246923,-79.45559982872773
TOCA,181 Wellington Street W,Italian,4.0,165,$$$$,4,43.6453201,-79.3871017
Coffee Oysters Champagne,214 King Street W,Champagne Bars,4.0,81,,0,43.64757,-79.38684
Chris Jerk Caribbean Bistro,2570 Birchmount Road,Caribbean,4.5,440,$$,2,43.789649473453,-79.3024008755197
Cafe Neon,1024 Queen Street W,Coffee & Tea,4.0,66,$$,2,43.64427,-79.4197
Imanishi Basement Bar,193 Carlton Street,Japanese,4.0,7,,0,43.663525,-79.37069
Ardo Restaurant,243 King Street E,Italian,4.0,107,$$$,3,43.65103,-79.36839
Martins Churrasqueira,2700 St Clair Avenue W,Barbeque,4.0,13,,0,43.6665079966188,-79.497883
7 West Cafe,7 Charles Street W,Italian,3.5,432,$$,2,43.6685661933329,-79.3865257501602
Old School,800 Dundas Street W,Breakfast & Brunch,3.5,352,$$,2,43.6519218754076,-79.4083632901311
MamaDon,606 Bloor Street W,Japanese,3.5,5,,0,43.66484,-79.41336
Stamps Lane,371 Roncesvalles Avenue,Canadian (New),4.0,25,,0,43.6501499,-79.45026
Xola Mexican Food,2222A Queen Street  E,Mexican,4.0,85,$$,2,43.6725435,-79.2881094
Peter Pan Bistro,373 Queen Street W,Canadian (New),3.5,193,$$,2,43.64915,-79.3933799
Karma's Kitchen,1411 Gerrard Street E,Himalayan/Nepalese,4.0,61,$$,2,43.67183,-79.32305
Pure Spirits,17 Tank House Lane,Seafood,3.0,280,$$$,3,43.650404,-79.358722
Sala Modern Thai Kitchen & Bar,1262 Danforth Avenue,Thai,4.5,188,$$,2,43.6819991223223,-79.3307374790311
Chiang Rai,2070 Avenue Road,Thai,4.5,21,,0,43.736431,-79.4205058
Fresco's Fish & Chips,201 Augusta Avenue,Fish & Chips,4.5,382,$$,2,43.6538341,-79.4015484
Poop Cafe,706 Bloor St W,Desserts,3.0,273,$$,2,43.66391,-79.41767
Juicy Dumpling,2150 Yonge street,Dumplings,3.5,33,,0,43.7037181,-79.3980153
Flor Mexicana,1585 Dundas Street W,Mexican,4.0,2,,0,43.64983973095379,-79.43459501769098
You Don Ya,108 Dundas St W,Japanese,3.5,90,$$,2,43.6557137988527,-79.3841209246949
Vua,717 Bay Street,Vietnamese,4.5,4,,0,43.6589177032334,-79.3848088011146
Alijandro's Kitchen,284 Stop Spadina Ln,Middle Eastern,0.0,0,,0,43.67868718253328,-79.3988823518157
Tinuno - Little Manila,3520 Bathurst St,Filipino,4.0,14,,0,43.72911,-79.43242
J San Sushi Bar,186 Jarvis Street,Sushi Bars,4.5,76,,0,43.6561276,-79.3745768
Vista Eatery,955 Lake Shore Boulevard W,Fast Food,4.0,3,,0,43.627719200341076,-79.41273766066551
Jerk King,522 Bloor Street W,Caribbean,3.5,72,$,1,43.6654396,-79.4108124
Pomarosa Coffee Shop & Kitchen,1504 Danforth Avenue,Venezuelan,4.5,46,$$,2,43.683242,-79.32545
Nom Nom Nom Poutine,707 Dundas Street W,Poutineries,4.5,138,$,1,43.6520696112633,-79.4047858938575
Bhoj Indian Cuisine,21 Davenport Road,Indian,4.0,69,$$,2,43.67277,-79.389
The Fourth Man In The Fire,832 Dundas Street W,Pizza,4.0,39,,0,43.65176,-79.40951
Jz's Pizza,232 Wellington Street W,Pizza,4.0,112,$$,2,43.6452767607007,-79.3897039038027
Queen Subs,344 Queen Street E,Sandwiches,0.0,0,,0,43.6557667,-79.3647247
BOWL,107 Mutual St,Sushi Bars,4.5,5,,0,43.6572,-79.37555
Mean Bao,65 Front Street W,Chinese,4.0,2,,0,43.64552,-79.38031
Mustachio Italian Eatery,595 Bay St.,Pizza,4.0,15,$,1,43.65621,-79.38326
Ave Maria Latin Café,631 Bloor Street W,Coffee & Tea,4.5,38,$,1,43.6643105,-79.4143295
The Civic At the Broadview Hotel,106 Broadview Avenue,American (Traditional),3.0,28,,0,43.6589787518921,-79.350162238471
Yummy Zone,895 Bay Street,Taiwanese,3.5,24,$,1,43.66317,-79.38636
La Carnita,780 Queen Street E,Mexican,3.5,129,$$,2,43.6596718,-79.3473892
Banh Mi Boys,2365 Yonge Street,Vietnamese,4.5,121,$,1,43.7092,-79.39857
Ho Ga Oriental Cuisine,121 King Street W,Asian Fusion,4.0,42,$,1,43.64768,-79.38294
Strange Love,101 Spadina Avenue,Coffee & Tea,4.5,201,$,1,43.6463302208773,-79.395091128185
kapital restaurant & Grill,1500 St Clair Ave W,Portuguese,5.0,1,,0,43.67564,-79.45517
Shawarma West,746 Queen Street W,Middle Eastern,4.5,5,,0,43.64623,-79.41014
Dave's Hot Chicken,1130 Queen Street E,Chicken Shop,4.0,21,,0,43.66248,-79.33478
EAT BKK Thai Kitchen & Bar,6307 Yonge Street,Thai,4.5,273,$$,2,43.7956999,-79.41915
Shizuku,2950 Kennedy Rd,Sushi Bars,4.5,6,,0,43.80463812059403,-79.29932713508606
Europe Bar & Restaurant,3030 Bathurst Street,Hungarian,4.0,24,$$,2,43.71817,-79.4297799
Pink Sky,480 King St W,Cocktail Bars,4.0,29,,0,43.6454752,-79.39627225153701
Skyline Restaurant,1426 Queen Street W,Bars,4.0,72,$$,2,43.64109,-79.4351499
Albert's Real Jamaican Foods,542 Saint Clair Avenue W,Caribbean,3.5,107,$$,2,43.68293,-79.42073
General Assembly Pizza,331 Adelaide St W,Pizza,4.0,119,$$,2,43.6471679369502,-79.3929389223906
Mill Street Beer Hall,21 Tank House Lane,Gastropubs,3.0,180,$$,2,43.6504424511321,-79.3584427521102
Norling,1512 Queen Street W,Himalayan/Nepalese,4.0,72,$,1,43.64035185125108,-79.4385082
Mel's Real Good Pizza,170 Princes Boulevard,Pizza,4.5,3,,0,43.63362343886292,-79.41743245455055
Bellona Kitchen,276 Jane Street,Italian,5.0,1,,0,43.65582003744772,-79.4873736
Impact Kitchen,88 Queens Quay W,Coffee & Tea,4.5,11,,0,43.64085,-79.37871
Fattoush,253 Gerrard Street E,Halal,5.0,8,,0,43.6617657,-79.369013
Nobuya,285 Royal York Road,Japanese,4.0,201,$$,2,43.61451,-79.49741
El Rancherito,1662 Street Clair Avenue W,Colombian,3.5,17,$,1,43.6748467,-79.4578909
Pasta Pronta,525 University Avenue,Italian,4.0,8,,0,43.6563212885996,-79.388174302876
Mr Jerk,209 Wellesley Street E,Caribbean,4.0,88,$,1,43.66721,-79.3732
Saffron Spice Kitchen,459 Queen Street W,Indian,4.0,137,$$,2,43.648414742991086,-79.3972173
KoSam,5865 Leslie Street,Korean,4.0,196,$$,2,43.798412,-79.368898
Lamhan,733 Bloor Street W,Vietnamese,4.0,4,,0,43.663427046999864,-79.41859508567633
Casa Di Giorgios,1646 Queen St E,Italian,4.0,74,$$,2,43.6668499,-79.31518
Ajisen Ramen and Bar,399 Church Street,Bars,4.0,6,,0,43.6617864,-79.3788996
The Wren,1382 Danforth Avenue,Bars,4.0,216,$$,2,43.6824096,-79.3280496
